1755507817482,$GPGSA,A,1,,,,,,,,,,,,,,,,*32
1755507817482,$GPVTG,,T,,M,,N,,K,N*2C
1755507817482,$GPDTM,,,,,,,,*4A
1755507817482,$GPRMC,,V,,,,,,,,,,N,V*29
1755507817482,$GPGNS,,,,,,N,,,,,,,V*79
1755507817482,$GPGGA,,,,,,0,,,,,,,,*66
1755507817501,$GPGSV,3,1,12,10,66,016,31,18,23,158,30,23,52,122,41,28,32,336,25,1*6E
1755507817501,$GPGSV,3,2,12,29,13,106,30,02,01,295,,16,21,209,,25,19,039,,1*6C
1755507817501,$GPGSV,3,3,12,26,59,212,,27,07,223,,31,37,298,,32,18,008,,1*6A
1755507817501,$GLGSV,2,1,07,77,75,270,37,76,42,012,28,65,27,045,25,72,16,102,31,1*72
1755507817501,$GLGSV,2,2,07,78,21,210,,88,25,220,,87,09,160,,1*46
1755507817501,$GAGSV,3,1,10,21,37,052,29,23,73,146,33,26,19,156,33,04,02,314,,7*73
1755507817501,$GAGSV,3,2,10,10,15,299,,12,33,284,,19,16,007,,29,12,053,,7*7F
1755507817501,$GAGSV,3,3,10,31,28,206,,33,52,206,,7*7D
1755507817501,$GQGSV,1,1,02,02,39,077,26,03,44,147,33,1*6A
1755507817501,$GBGSV,5,1,19,01,45,081,,02,60,291,,03,80,026,,04,28,085,,1*71
1755507817501,$GBGSV,5,2,19,05,33,278,,06,40,340,,07,46,164,,08,64,014,,1*7D
1755507817501,$GBGSV,5,3,19,09,46,323,,10,43,182,,13,59,357,,16,37,345,,1*72
1755507817501,$GBGSV,5,4,19,20,10,341,,23,04,029,,27,28,167,,28,08,129,,1*73
1755507817501,$GBGSV,5,5,19,30,25,227,,32,40,033,,36,10,223,,1*4F
1755507817528,$GNGSA,A,3,10,18,23,25,28,29,31,,,,,,1.0,0.7,0.8,1*32
1755507817528,$GNGSA,A,3,76,88,,,,,,,,,,,1.0,0.7,0.8,2*3D
1755507817528,$GNGSA,A,3,10,12,21,23,26,,,,,,,,1.0,0.7,0.8,3*39
1755507817528,$GNGSA,A,3,07,09,,,,,,,,,,,1.0,0.7,0.8,4*34
1755507817528,$GNGSA,A,3,03,,,,,,,,,,,,1.0,0.7,0.8,5*38
1755507817528,$GNVTG,,T,,M,0.0,N,0.0,K,A*3D
1755507817528,$GNDTM,P90,,0000.000006,N,00000.000002,W,1.000,W84*54
1755507817528,$GNRMC,090336.50,A,0612.871792,S,10651.587089,E,0.0,,180825,0.9,W,A,V*7A
1755507817528,$GNGNS,090336.50,0612.871792,S,10651.587089,E,AAAAAN,17,0.7,14.1,32.0,,,V*01
1755507817528,$GNGGA,090336.50,0612.871792,S,10651.587089,E,1,12,0.7,14.1,M,32.0,M,,*5B
1755507818483,$GPGSV,3,1,12,10,66,016,31,18,23,158,30,23,52,122,42,28,32,336,25,1*6D
1755507818483,$GPGSV,3,2,12,29,13,106,31,31,37,298,22,02,01,295,,16,21,209,,1*6D
1755507818483,$GPGSV,3,3,12,25,19,039,,26,59,212,,27,07,223,,32,18,008,,1*6A
1755507818483,$GLGSV,2,1,07,78,21,210,21,77,75,270,37,76,42,012,24,65,27,045,23,1*77
1755507818483,$GLGSV,2,2,07,88,25,220,24,72,16,102,28,87,09,160,,1*44
1755507818483,$GAGSV,3,1,10,10,15,299,24,21,37,052,29,23,73,146,32,26,19,156,32,7*72
1755507818483,$GAGSV,3,2,10,33,52,206,21,04,02,314,,12,33,284,,19,16,007,,7*76
1755507818483,$GAGSV,3,3,10,29,12,053,,31,28,206,,7*70
1755507818483,$GQGSV,1,1,02,02,39,077,29,03,44,147,30,1*66
1755507818483,$GBGSV,5,1,19,09,46,323,24,07,46,164,22,04,28,085,28,01,45,081,,1*73
1755507818483,$GBGSV,5,2,19,02,60,291,,03,80,026,,05,33,278,,06,40,340,,1*75
1755507818483,$GBGSV,5,3,19,08,64,014,,10,43,182,,13,59,357,,16,37,345,,1*74
1755507818483,$GBGSV,5,4,19,20,10,341,,23,04,029,,27,28,167,,28,08,129,,1*73
1755507818483,$GBGSV,5,5,19,30,25,227,,32,40,033,,36,10,223,,1*4F
1755507818491,$GNGSA,A,3,10,18,23,28,29,31,,,,,,,1.0,0.7,0.8,1*35
1755507818491,$GNGSA,A,3,76,88,,,,,,,,,,,1.0,0.7,0.8,2*3D
1755507818491,$GNGSA,A,3,10,12,21,23,26,33,,,,,,,1.0,0.7,0.8,3*39
1755507818491,$GNGSA,A,3,04,07,09,,,,,,,,,,1.0,0.7,0.8,4*30
1755507818491,$GNGSA,A,3,03,,,,,,,,,,,,1.0,0.7,0.8,5*38
1755507818491,$GNVTG,,T,,M,0.0,N,0.0,K,A*3D
1755507818491,$GNDTM,P90,,0000.000006,N,00000.000002,W,1.000,W84*54
1755507818491,$GNRMC,090338.00,A,0612.871756,S,10651.587081,E,0.0,,180825,0.9,W,A,V*71
1755507818491,$GNGNS,090338.00,0612.871756,S,10651.587081,E,AAAAAN,18,0.7,14.0,32.0,,,V*04
1755507818491,$GNGGA,090338.00,0612.871756,S,10651.587081,E,1,12,0.7,14.0,M,32.0,M,,*51
1755507819481,$GPGSV,3,1,12,10,66,016,30,18,23,158,33,23,52,122,41,28,32,336,25,1*6C
1755507819481,$GPGSV,3,2,12,29,13,106,31,31,37,298,22,02,01,295,,16,21,209,,1*6D
1755507819481,$GPGSV,3,3,12,25,19,039,,26,59,212,,27,07,223,,32,18,008,,1*6A
1755507819481,$GLGSV,2,1,07,78,21,210,21,77,75,270,35,76,42,012,25,65,27,045,23,1*74
1755507819481,$GLGSV,2,2,07,88,25,220,24,72,16,102,29,87,09,160,,1*45
1755507819481,$GAGSV,3,1,10,10,15,299,24,21,37,052,29,23,73,146,31,26,19,156,33,7*70
1755507819481,$GAGSV,3,2,10,33,52,206,21,04,02,314,,12,33,284,,19,16,007,,7*76
1755507819481,$GAGSV,3,3,10,29,12,053,,31,28,206,,7*70
1755507819481,$GQGSV,1,1,02,02,39,077,29,03,44,147,33,1*65
1755507819481,$GBGSV,5,1,19,09,46,323,24,07,46,164,22,04,28,085,28,01,45,081,,1*73
1755507819481,$GBGSV,5,2,19,02,60,291,,03,80,026,,05,33,278,,06,40,340,,1*75
1755507819481,$GBGSV,5,3,19,08,64,014,,10,43,182,,13,59,357,,16,37,345,,1*74
1755507819481,$GBGSV,5,4,19,20,10,341,,23,04,029,,27,28,167,,28,08,129,,1*73
1755507819481,$GBGSV,5,5,19,30,25,227,,32,40,033,,36,10,223,,1*4F
1755507819489,$GNGSA,A,3,10,18,23,28,29,31,,,,,,,1.0,0.7,0.8,1*35
1755507819489,$GNGSA,A,3,76,88,,,,,,,,,,,1.0,0.7,0.8,2*3D
1755507819489,$GNGSA,A,3,10,12,21,23,26,33,,,,,,,1.0,0.7,0.8,3*39
1755507819489,$GNGSA,A,3,04,07,09,,,,,,,,,,1.0,0.7,0.8,4*30
1755507819489,$GNGSA,A,3,03,,,,,,,,,,,,1.0,0.7,0.8,5*38
1755507819489,$GNVTG,,T,,M,0.0,N,0.0,K,A*3D
1755507819489,$GNDTM,P90,,0000.000006,N,00000.000002,W,1.000,W84*54
1755507819489,$GNRMC,090339.00,A,0612.871749,S,10651.587078,E,0.0,,180825,0.9,W,A,V*78
1755507819489,$GNGNS,090339.00,0612.871749,S,10651.587078,E,AAAAAN,18,0.7,14.0,32.0,,,V*0D
1755507819489,$GNGGA,090339.00,0612.871749,S,10651.587078,E,1,12,0.7,14.0,M,32.0,M,,*58
1755507820482,$GPGSV,3,1,12,10,66,016,29,18,23,158,36,23,52,122,40,28,32,336,26,1*63
1755507820482,$GPGSV,3,2,12,29,13,106,31,31,37,298,22,02,01,295,,16,21,209,,1*6D
1755507820482,$GPGSV,3,3,12,25,19,039,,26,59,212,,27,07,223,,32,18,008,,1*6A
1755507820482,$GLGSV,2,1,07,78,21,210,21,77,75,270,35,76,42,012,30,65,27,045,25,1*76
1755507820482,$GLGSV,2,2,07,88,25,220,25,72,16,102,32,87,09,160,,1*4E
1755507820482,$GAGSV,3,1,10,10,15,299,23,21,37,052,30,23,73,146,28,26,19,156,29,7*7C
1755507820482,$GAGSV,3,2,10,33,52,206,24,04,02,314,,12,33,284,,19,16,007,,7*73
1755507820482,$GAGSV,3,3,10,29,12,053,,31,28,206,,7*70
1755507820482,$GQGSV,1,1,02,02,39,077,32,03,44,147,32,1*6E
1755507820482,$GBGSV,5,1,19,13,59,357,25,09,46,323,29,07,46,164,26,04,28,085,36,1*74
1755507820482,$GBGSV,5,2,19,01,45,081,38,02,60,291,,03,80,026,,05,33,278,,1*72
1755507820482,$GBGSV,5,3,19,06,40,340,,08,64,014,,10,43,182,,16,37,345,,1*7E
1755507820482,$GBGSV,5,4,19,20,10,341,,23,04,029,,27,28,167,,28,08,129,,1*73
1755507820482,$GBGSV,5,5,19,30,25,227,,32,40,033,,36,10,223,,1*4F
1755507820499,$GNGSA,A,3,10,18,23,28,29,31,,,,,,,1.0,0.7,0.8,1*35
1755507820499,$GNGSA,A,3,76,88,,,,,,,,,,,1.0,0.7,0.8,2*3D
1755507820499,$GNGSA,A,3,10,21,23,26,33,,,,,,,,1.0,0.7,0.8,3*3A
1755507820499,$GNGSA,A,3,04,07,09,13,,,,,,,,,1.0,0.7,0.8,4*32
1755507820499,$GNGSA,A,3,03,,,,,,,,,,,,1.0,0.7,0.8,5*38
1755507820499,$GNVTG,,T,,M,0.0,N,0.0,K,A*3D
1755507820499,$GNDTM,P90,,0000.000006,N,00000.000002,W,1.000,W84*54
1755507820499,$GNRMC,090340.00,A,0612.871625,S,10651.587075,E,0.0,,180825,0.9,W,A,V*70
1755507820499,$GNGNS,090340.00,0612.871625,S,10651.587075,E,AAAAAN,18,0.7,13.7,32.0,,,V*05
1755507820499,$GNGGA,090340.00,0612.871625,S,10651.587075,E,1,12,0.7,13.7,M,32.0,M,,*50
1755507821490,$GPGSV,3,1,12,10,66,016,32,18,23,158,38,23,52,122,40,25,19,039,20,1*69
1755507821490,$GPGSV,3,2,12,28,32,336,26,29,13,106,27,31,37,298,22,02,01,295,,1*6C
1755507821490,$GPGSV,3,3,12,16,21,209,,26,59,212,,27,07,223,,32,18,008,,1*60
1755507821490,$GLGSV,2,1,07,78,21,210,21,77,75,270,35,76,42,012,32,65,27,045,28,1*79
1755507821490,$GLGSV,2,2,07,88,25,220,26,72,16,102,29,87,09,160,,1*47
1755507821490,$GAGSV,3,1,10,10,15,299,23,12,33,284,22,21,37,052,30,23,73,146,30,7*7D
1755507821490,$GAGSV,3,2,10,26,19,156,29,33,52,206,25,04,02,314,,19,16,007,,7*7A
1755507821490,$GAGSV,3,3,10,29,12,053,,31,28,206,,7*70
1755507821490,$GQGSV,1,1,02,02,39,077,33,03,44,147,32,1*6F
1755507821490,$GBGSV,5,1,19,13,59,357,24,09,46,323,30,07,46,164,28,04,28,085,36,1*73
1755507821490,$GBGSV,5,2,19,01,45,081,38,02,60,291,,03,80,026,,05,33,278,,1*72
1755507821490,$GBGSV,5,3,19,06,40,340,,08,64,014,,10,43,182,,16,37,345,,1*7E
1755507821490,$GBGSV,5,4,19,20,10,341,,23,04,029,,27,28,167,,28,08,129,,1*73
1755507821490,$GBGSV,5,5,19,30,25,227,,32,40,033,,36,10,223,,1*4F
1755507821517,$GNGSA,A,3,10,18,23,25,28,29,31,,,,,,1.0,0.6,0.7,1*3C
1755507821517,$GNGSA,A,3,76,88,,,,,,,,,,,1.0,0.6,0.7,2*33
1755507821517,$GNGSA,A,3,10,21,23,26,33,,,,,,,,1.0,0.6,0.7,3*34
1755507821517,$GNGSA,A,3,04,07,09,13,,,,,,,,,1.0,0.6,0.7,4*3C
1755507821517,$GNGSA,A,3,03,,,,,,,,,,,,1.0,0.6,0.7,5*36
1755507821517,$GNVTG,,T,,M,0.0,N,0.0,K,A*3D
1755507821517,$GNDTM,P90,,0000.000006,N,00000.000002,W,1.000,W84*54
1755507821517,$GNRMC,090341.00,A,0612.871607,S,10651.587020,E,0.0,,180825,0.9,W,A,V*71
1755507821517,$GNGNS,090341.00,0612.871607,S,10651.587020,E,AAAAAN,19,0.6,13.5,32.0,,,V*06
1755507821517,$GNGGA,090341.00,0612.871607,S,10651.587020,E,1,12,0.6,13.5,M,32.0,M,,*52
1755507822489,$GPGSV,3,1,12,10,66,016,27,18,23,158,38,23,52,122,41,25,19,039,22,1*6E
1755507822489,$GPGSV,3,2,12,28,32,336,23,29,13,106,28,31,37,298,19,02,01,295,,1*6E
1755507822489,$GPGSV,3,3,12,16,21,209,,26,59,212,,27,07,223,,32,18,008,,1*60
1755507822489,$GLGSV,2,1,07,78,21,210,21,77,75,270,36,76,42,012,30,65,27,045,29,1*79
1755507822489,$GLGSV,2,2,07,88,25,220,25,87,09,160,20,72,16,102,35,1*4B
1755507822489,$GAGSV,3,1,10,10,15,299,25,12,33,284,22,21,37,052,28,23,73,146,31,7*73
1755507822489,$GAGSV,3,2,10,26,19,156,32,33,52,206,27,04,02,314,,19,16,007,,7*72
1755507822489,$GAGSV,3,3,10,29,12,053,,31,28,206,,7*70
1755507822489,$GQGSV,1,1,02,02,39,077,31,03,44,147,30,1*6F
1755507822489,$GBGSV,5,1,19,16,37,345,22,13,59,357,25,09,46,323,29,07,46,164,27,1*72
1755507822489,$GBGSV,5,2,19,06,40,340,20,04,28,085,37,03,80,026,31,02,60,291,29,1*71
1755507822489,$GBGSV,5,3,19,01,45,081,39,05,33,278,,08,64,014,,10,43,182,,1*71
1755507822489,$GBGSV,5,4,19,20,10,341,,23,04,029,,27,28,167,,28,08,129,,1*73
1755507822489,$GBGSV,5,5,19,30,25,227,,32,40,033,,36,10,223,,1*4F
1755507822518,$GNGSA,A,3,10,18,23,25,28,29,31,,,,,,1.0,0.6,0.7,1*3C
1755507822518,$GNGSA,A,3,76,88,,,,,,,,,,,1.0,0.6,0.7,2*33
1755507822518,$GNGSA,A,3,10,21,23,26,33,,,,,,,,1.0,0.6,0.7,3*34
1755507822518,$GNGSA,A,3,03,04,07,09,13,,,,,,,,1.0,0.6,0.7,4*3F
1755507822518,$GNGSA,A,3,03,,,,,,,,,,,,1.0,0.6,0.7,5*36
1755507822518,$GNVTG,,T,,M,0.0,N,0.0,K,A*3D
1755507822518,$GNDTM,P90,,0000.000006,N,00000.000002,W,1.000,W84*54
1755507822518,$GNRMC,090342.00,A,0612.871643,S,10651.586895,E,0.0,,180825,0.9,W,A,V*75
1755507822518,$GNGNS,090342.00,0612.871643,S,10651.586895,E,AAAAAN,20,0.6,13.3,32.0,,,V*0E
1755507822518,$GNGGA,090342.00,0612.871643,S,10651.586895,E,1,12,0.6,13.3,M,32.0,M,,*50
1755507823487,$GPGSV,3,1,12,10,66,016,30,18,23,158,38,23,52,122,40,25,19,039,22,1*69
1755507823487,$GPGSV,3,2,12,26,59,212,24,28,32,336,25,29,13,106,33,31,37,298,19,1*60
1755507823487,$GPGSV,3,3,12,02,01,295,,16,21,209,,27,07,223,,32,18,008,,1*64
1755507823487,$GLGSV,2,1,07,78,21,210,21,77,75,270,36,76,42,012,30,65,27,045,29,1*79
1755507823487,$GLGSV,2,2,07,88,25,220,26,87,09,160,20,72,16,102,32,1*4F
1755507823487,$GAGSV,3,1,10,10,15,299,24,12,33,284,22,21,37,052,29,23,73,146,30,7*72
1755507823487,$GAGSV,3,2,10,26,19,156,31,33,52,206,27,04,02,314,,19,16,007,,7*71
1755507823487,$GAGSV,3,3,10,29,12,053,,31,28,206,,7*70
1755507823487,$GQGSV,1,1,02,02,39,077,33,03,44,147,30,1*6D
1755507823487,$GBGSV,5,1,19,16,37,345,25,13,59,357,24,09,46,323,30,07,46,164,24,1*7F
1755507823487,$GBGSV,5,2,19,06,40,340,23,04,28,085,36,03,80,026,32,02,60,291,29,1*70
1755507823487,$GBGSV,5,3,19,01,45,081,40,05,33,278,,08,64,014,,10,43,182,,1*7F
1755507823487,$GBGSV,5,4,19,20,10,341,,23,04,029,,27,28,167,,28,08,129,,1*73
1755507823487,$GBGSV,5,5,19,30,25,227,,32,40,033,,36,10,223,,1*4F
1755507823518,$GNGSA,A,3,10,18,23,25,26,28,29,31,,,,,0.9,0.6,0.7,1*30
1755507823518,$GNGSA,A,3,76,88,,,,,,,,,,,0.9,0.6,0.7,2*3B
1755507823518,$GNGSA,A,3,10,21,23,26,33,,,,,,,,0.9,0.6,0.7,3*3C
1755507823518,$GNGSA,A,3,03,04,07,09,13,,,,,,,,0.9,0.6,0.7,4*37
1755507823518,$GNGSA,A,3,03,,,,,,,,,,,,0.9,0.6,0.7,5*3E
1755507823518,$GNVTG,,T,,M,0.0,N,0.0,K,A*3D
1755507823518,$GNDTM,P90,,0000.000006,N,00000.000002,W,1.000,W84*54
1755507823518,$GNRMC,090343.00,A,0612.871624,S,10651.586899,E,0.0,,180825,0.9,W,A,V*79
1755507823518,$GNGNS,090343.00,0612.871624,S,10651.586899,E,AAAAAN,21,0.6,13.2,32.0,,,V*02
1755507823518,$GNGGA,090343.00,0612.871624,S,10651.586899,E,1,12,0.6,13.2,M,32.0,M,,*5D
1755507824492,$GPGSV,3,1,12,10,66,016,30,18,23,158,39,23,52,122,40,25,19,039,22,1*68
1755507824492,$GPGSV,3,2,12,26,59,212,25,28,32,336,25,29,13,106,30,31,37,298,19,1*62
1755507824492,$GPGSV,3,3,12,02,01,295,,16,21,209,,27,07,223,,32,18,008,,1*64
1755507824492,$GLGSV,2,1,07,78,21,210,21,77,75,270,35,76,42,012,30,65,27,045,29,1*7A
1755507824492,$GLGSV,2,2,07,88,25,220,26,87,09,160,20,72,16,102,28,1*44
1755507824492,$GAGSV,3,1,10,10,15,299,27,12,33,284,22,21,37,052,28,23,73,146,25,7*74
1755507824492,$GAGSV,3,2,10,26,19,156,30,33,52,206,25,04,02,314,,19,16,007,,7*72
1755507824492,$GAGSV,3,3,10,29,12,053,,31,28,206,,7*70
1755507824492,$GQGSV,1,1,02,02,39,077,34,03,44,147,28,1*63
1755507824492,$GBGSV,5,1,19,16,37,345,25,13,59,357,23,09,46,323,29,07,46,164,25,1*71
1755507824492,$GBGSV,5,2,19,06,40,340,23,04,28,085,39,03,80,026,32,02,60,291,29,1*7F
1755507824492,$GBGSV,5,3,19,01,45,081,40,05,33,278,,08,64,014,,10,43,182,,1*7F
1755507824492,$GBGSV,5,4,19,20,10,341,,23,04,029,,27,28,167,,28,08,129,,1*73
1755507824492,$GBGSV,5,5,19,30,25,227,,32,40,033,,36,10,223,,1*4F
1755507824518,$GNGSA,A,3,10,18,23,25,26,28,29,,,,,,1.0,0.7,0.7,1*3B
1755507824518,$GNGSA,A,3,76,88,,,,,,,,,,,1.0,0.7,0.7,2*32
1755507824518,$GNGSA,A,3,10,21,23,26,33,,,,,,,,1.0,0.7,0.7,3*35
1755507824518,$GNGSA,A,3,03,04,07,09,13,,,,,,,,1.0,0.7,0.7,4*3E
1755507824518,$GNGSA,A,3,03,,,,,,,,,,,,1.0,0.7,0.7,5*37
1755507824518,$GNVTG,,T,,M,0.0,N,0.0,K,A*3D
1755507824518,$GNDTM,P90,,0000.000006,N,00000.000002,W,1.000,W84*54
1755507824518,$GNRMC,090344.00,A,0612.871598,S,10651.586949,E,0.0,,180825,0.9,W,A,V*76
1755507824518,$GNGNS,090344.00,0612.871598,S,10651.586949,E,AAAAAN,20,0.7,13.2,32.0,,,V*0D
1755507824518,$GNGGA,090344.00,0612.871598,S,10651.586949,E,1,12,0.7,13.2,M,32.0,M,,*53
1755507825488,$GPGSV,3,1,12,10,66,016,27,18,23,158,37,23,52,122,41,26,59,212,25,1*6A
1755507825488,$GPGSV,3,2,12,28,32,336,25,29,13,106,29,31,37,298,19,02,01,295,,1*69
1755507825488,$GPGSV,3,3,12,16,21,209,,25,19,039,,27,07,223,,32,18,008,,1*6C
1755507825488,$GLGSV,2,1,07,78,21,210,21,77,75,270,37,76,42,012,28,65,27,045,27,1*7F
1755507825488,$GLGSV,2,2,07,88,25,220,26,87,09,160,20,72,16,102,36,1*4B
1755507825488,$GAGSV,3,1,10,10,15,299,24,12,33,284,22,21,37,052,28,23,73,146,31,7*72
1755507825488,$GAGSV,3,2,10,26,19,156,33,33,52,206,27,04,02,314,,19,16,007,,7*73
1755507825488,$GAGSV,3,3,10,29,12,053,,31,28,206,,7*70
1755507825488,$GQGSV,1,1,02,02,39,077,30,03,44,147,32,1*6C
1755507825488,$GBGSV,5,1,19,16,37,345,25,13,59,357,28,09,46,323,30,07,46,164,28,1*7F
1755507825488,$GBGSV,5,2,19,06,40,340,21,04,28,085,36,03,80,026,32,02,60,291,29,1*72
1755507825488,$GBGSV,5,3,19,01,45,081,40,05,33,278,,08,64,014,,10,43,182,,1*7F
1755507825488,$GBGSV,5,4,19,20,10,341,,23,04,029,,27,28,167,,28,08,129,,1*73
1755507825488,$GBGSV,5,5,19,30,25,227,,32,40,033,,36,10,223,,1*4F
1755507825516,$GNGSA,A,3,10,18,23,25,26,28,29,,,,,,1.0,0.7,0.7,1*3B
1755507825516,$GNGSA,A,3,76,88,,,,,,,,,,,1.0,0.7,0.7,2*32
1755507825516,$GNGSA,A,3,10,21,23,26,33,,,,,,,,1.0,0.7,0.7,3*35
1755507825516,$GNGSA,A,3,03,04,07,09,13,,,,,,,,1.0,0.7,0.7,4*3E
1755507825516,$GNGSA,A,3,03,,,,,,,,,,,,1.0,0.7,0.7,5*37
1755507825516,$GNVTG,,T,,M,0.0,N,0.0,K,A*3D
1755507825516,$GNDTM,P90,,0000.000006,N,00000.000002,W,1.000,W84*54
1755507825516,$GNRMC,090345.00,A,0612.871570,S,10651.586984,E,0.0,,180825,0.9,W,A,V*70
1755507825516,$GNGNS,090345.00,0612.871570,S,10651.586984,E,AAAAAN,20,0.7,13.3,32.0,,,V*0A
1755507825516,$GNGGA,090345.00,0612.871570,S,10651.586984,E,1,12,0.7,13.3,M,32.0,M,,*54
1755507826485,$GPGSV,3,1,12,10,66,016,29,18,23,158,37,23,52,122,41,25,19,039,23,1*6E
1755507826485,$GPGSV,3,2,12,29,13,106,28,31,37,298,19,02,01,295,,16,21,209,,1*6D
1755507826485,$GPGSV,3,3,12,26,59,212,,27,07,223,,28,32,336,,32,18,008,,1*62
1755507826485,$GLGSV,2,1,07,78,21,210,21,77,75,270,37,76,42,012,28,65,27,045,26,1*7E
1755507826485,$GLGSV,2,2,07,88,25,220,26,87,09,160,20,72,16,102,37,1*4A
1755507826485,$GAGSV,3,1,10,10,15,299,25,12,33,284,22,21,37,052,28,23,73,146,28,7*7B
1755507826485,$GAGSV,3,2,10,26,19,156,34,33,52,206,27,04,02,314,,19,16,007,,7*74
1755507826485,$GAGSV,3,3,10,29,12,053,,31,28,206,,7*70
1755507826485,$GQGSV,1,1,02,02,39,077,25,03,44,147,31,1*6B
1755507826485,$GBGSV,5,1,19,16,37,345,24,13,59,357,27,09,46,323,30,07,46,164,28,1*71
1755507826485,$GBGSV,5,2,19,06,40,340,23,04,28,085,35,03,80,026,34,02,60,291,29,1*75
1755507826485,$GBGSV,5,3,19,01,45,081,41,05,33,278,,08,64,014,,10,43,182,,1*7E
1755507826485,$GBGSV,5,4,19,20,10,341,,23,04,029,,27,28,167,,28,08,129,,1*73
1755507826485,$GBGSV,5,5,19,30,25,227,,32,40,033,,36,10,223,,1*4F
1755507826500,$GNGSA,A,3,10,18,23,25,26,29,31,,,,,,0.9,0.6,0.7,1*3A
1755507826500,$GNGSA,A,3,76,88,,,,,,,,,,,0.9,0.6,0.7,2*3B
1755507826500,$GNGSA,A,3,10,12,21,23,26,33,,,,,,,0.9,0.6,0.7,3*3F
1755507826500,$GNGSA,A,3,02,03,04,06,07,09,13,16,,,,,0.9,0.6,0.7,4*34
1755507826500,$GNGSA,A,3,03,,,,,,,,,,,,0.9,0.6,0.7,5*3E
1755507826500,$GNVTG,,T,,M,0.0,N,0.0,K,A*3D
1755507826500,$GNDTM,P90,,0000.000006,N,00000.000002,W,1.000,W84*54
1755507826500,$GNRMC,090346.00,A,0612.871528,S,10651.587033,E,0.0,,180825,0.9,W,A,V*7A
1755507826500,$GNGNS,090346.00,0612.871528,S,10651.587033,E,AAAAAN,24,0.6,13.2,32.0,,,V*04
1755507826500,$GNGGA,090346.00,0612.871528,S,10651.587033,E,1,12,0.6,13.2,M,32.0,M,,*5E
1755507827489,$GPGSV,3,1,12,10,66,016,30,18,23,158,38,23,52,122,41,25,19,039,24,1*6E
1755507827489,$GPGSV,3,2,12,26,59,212,23,28,32,336,24,29,13,106,29,31,37,298,18,1*6C
1755507827489,$GPGSV,3,3,12,02,01,295,,16,21,209,,27,07,223,,32,18,008,,1*64
1755507827489,$GLGSV,2,1,07,78,21,210,21,77,75,270,37,76,42,012,27,65,27,045,26,1*71
1755507827489,$GLGSV,2,2,07,88,25,220,25,87,09,160,20,72,16,102,37,1*49
1755507827489,$GAGSV,3,1,10,10,15,299,25,12,33,284,22,19,16,007,17,21,37,052,28,7*79
1755507827489,$GAGSV,3,2,10,23,73,146,28,26,19,156,35,33,52,206,26,04,02,314,,7*70
1755507827489,$GAGSV,3,3,10,29,12,053,,31,28,206,,7*70
1755507827489,$GQGSV,1,1,02,02,39,077,27,03,44,147,29,1*60
1755507827489,$GBGSV,5,1,19,16,37,345,25,13,59,357,27,09,46,323,29,07,46,164,29,1*79
1755507827489,$GBGSV,5,2,19,06,40,340,23,04,28,085,35,03,80,026,34,02,60,291,29,1*75
1755507827489,$GBGSV,5,3,19,01,45,081,40,05,33,278,,08,64,014,,10,43,182,,1*7F
1755507827489,$GBGSV,5,4,19,20,10,341,,23,04,029,,27,28,167,,28,08,129,,1*73
1755507827489,$GBGSV,5,5,19,30,25,227,,32,40,033,,36,10,223,,1*4F
1755507827518,$GNGSA,A,3,10,18,23,25,26,28,29,31,,,,,0.9,0.6,0.7,1*30
1755507827518,$GNGSA,A,3,76,88,,,,,,,,,,,0.9,0.6,0.7,2*3B
1755507827518,$GNGSA,A,3,10,12,19,21,23,26,33,,,,,,0.9,0.6,0.7,3*37
1755507827518,$GNGSA,A,3,02,03,04,06,07,09,13,16,,,,,0.9,0.6,0.7,4*34
1755507827518,$GNGSA,A,3,03,,,,,,,,,,,,0.9,0.6,0.7,5*3E
1755507827518,$GNVTG,,T,,M,0.0,N,0.0,K,A*3D
1755507827518,$GNDTM,P90,,0000.000006,N,00000.000002,W,1.000,W84*54
1755507827518,$GNRMC,090347.00,A,0612.871478,S,10651.587038,E,0.0,,180825,0.9,W,A,V*74
1755507827518,$GNGNS,090347.00,0612.871478,S,10651.587038,E,AAAAAN,26,0.6,13.2,32.0,,,V*08
1755507827518,$GNGGA,090347.00,0612.871478,S,10651.587038,E,1,12,0.6,13.2,M,32.0,M,,*50
1755507828488,$GPGSV,3,1,12,10,66,016,29,18,23,158,38,23,52,122,41,25,19,039,23,1*61
1755507828488,$GPGSV,3,2,12,26,59,212,23,28,32,336,24,29,13,106,29,31,37,298,22,1*65
1755507828488,$GPGSV,3,3,12,02,01,295,,16,21,209,,27,07,223,,32,18,008,,1*64
1755507828488,$GLGSV,2,1,07,78,21,210,16,77,75,270,37,76,42,012,28,65,27,045,27,1*7B
1755507828488,$GLGSV,2,2,07,88,25,220,25,87,09,160,20,72,16,102,37,1*49
1755507828488,$GAGSV,3,1,10,10,15,299,24,12,33,284,22,19,16,007,17,21,37,052,28,7*78
1755507828488,$GAGSV,3,2,10,23,73,146,28,26,19,156,35,33,52,206,24,04,02,314,,7*72
1755507828488,$GAGSV,3,3,10,29,12,053,,31,28,206,,7*70
1755507828488,$GQGSV,1,1,02,02,39,077,28,03,44,147,30,1*67
1755507828488,$GBGSV,5,1,19,16,37,345,24,13,59,357,28,09,46,323,30,07,46,164,29,1*7F
1755507828488,$GBGSV,5,2,19,06,40,340,23,04,28,085,36,03,80,026,32,02,60,291,27,1*7E
1755507828488,$GBGSV,5,3,19,01,45,081,40,05,33,278,,08,64,014,,10,43,182,,1*7F
1755507828488,$GBGSV,5,4,19,20,10,341,,23,04,029,,27,28,167,,28,08,129,,1*73
1755507828488,$GBGSV,5,5,19,30,25,227,,32,40,033,,36,10,223,,1*4F
1755507828519,$GNGSA,A,3,10,18,23,25,26,28,29,31,,,,,0.9,0.6,0.7,1*30
1755507828519,$GNGSA,A,3,76,88,,,,,,,,,,,0.9,0.6,0.7,2*3B
1755507828519,$GNGSA,A,3,10,12,19,21,23,26,33,,,,,,0.9,0.6,0.7,3*37
1755507828519,$GNGSA,A,3,02,03,04,06,07,09,13,16,,,,,0.9,0.6,0.7,4*34
1755507828519,$GNGSA,A,3,03,,,,,,,,,,,,0.9,0.6,0.7,5*3E
1755507828519,$GNVTG,,T,,M,0.0,N,0.0,K,A*3D
1755507828519,$GNDTM,P90,,0000.000006,N,00000.000002,W,1.000,W84*54
1755507828519,$GNRMC,090348.00,A,0612.871466,S,10651.587042,E,0.0,,180825,0.9,W,A,V*79
1755507828519,$GNGNS,090348.00,0612.871466,S,10651.587042,E,AAAAAN,26,0.6,13.2,32.0,,,V*05
1755507828519,$GNGGA,090348.00,0612.871466,S,10651.587042,E,1,12,0.6,13.2,M,32.0,M,,*5D
1755507829490,$GPGSV,3,1,12,10,66,016,29,18,23,158,37,23,52,122,41,25,19,039,23,1*6E
1755507829490,$GPGSV,3,2,12,28,32,336,24,29,13,106,29,31,37,298,24,02,01,295,,1*66
1755507829490,$GPGSV,3,3,12,16,21,209,,26,59,212,,27,07,223,,32,18,008,,1*60
1755507829490,$GLGSV,2,1,07,78,21,210,16,77,75,270,36,76,42,012,28,65,27,045,27,1*7A
1755507829490,$GLGSV,2,2,07,88,25,220,26,87,09,160,20,72,16,102,37,1*4A
1755507829490,$GAGSV,3,1,10,10,15,299,25,12,33,284,19,19,16,007,20,21,37,052,26,7*7B
1755507829490,$GAGSV,3,2,10,23,73,146,28,26,19,156,35,33,52,206,26,04,02,314,,7*70
1755507829490,$GAGSV,3,3,10,29,12,053,,31,28,206,,7*70
1755507829490,$GQGSV,1,1,02,02,39,077,29,03,44,147,30,1*66
1755507829490,$GBGSV,5,1,19,16,37,345,24,13,59,357,27,09,46,323,31,07,46,164,29,1*71
1755507829490,$GBGSV,5,2,19,06,40,340,24,04,28,085,36,03,80,026,33,02,60,291,27,1*78
1755507829490,$GBGSV,5,3,19,01,45,081,39,05,33,278,,08,64,014,,10,43,182,,1*71
1755507829490,$GBGSV,5,4,19,20,10,341,,23,04,029,,27,28,167,,28,08,129,,1*73
1755507829490,$GBGSV,5,5,19,30,25,227,,32,40,033,,36,10,223,,1*4F
1755507829534,$GNGSA,A,3,10,18,23,25,26,28,29,31,,,,,0.9,0.6,0.7,1*30
1755507829534,$GNGSA,A,3,76,88,,,,,,,,,,,0.9,0.6,0.7,2*3B
1755507829534,$GNGSA,A,3,10,12,19,21,23,26,33,,,,,,0.9,0.6,0.7,3*37
1755507829534,$GNGSA,A,3,02,03,04,06,07,09,13,16,,,,,0.9,0.6,0.7,4*34
1755507829534,$GNGSA,A,3,03,,,,,,,,,,,,0.9,0.6,0.7,5*3E
1755507829534,$GNVTG,,T,,M,0.0,N,0.0,K,A*3D
1755507829534,$GNDTM,P90,,0000.000006,N,00000.000002,W,1.000,W84*54
1755507829534,$GNRMC,090349.00,A,0612.871392,S,10651.586979,E,0.0,,180825,0.9,W,A,V*74
1755507829534,$GNGNS,090349.00,0612.871392,S,10651.586979,E,AAAAAN,26,0.6,12.9,32.0,,,V*02
1755507829534,$GNGGA,090349.00,0612.871392,S,10651.586979,E,1,12,0.6,12.9,M,32.0,M,,*5A
1755507830489,$GPGSV,3,1,12,10,66,016,30,18,23,158,37,23,52,122,41,25,19,039,25,1*60
1755507830489,$GPGSV,3,2,12,28,32,336,25,29,13,106,28,31,37,298,23,02,01,295,,1*61
1755507830489,$GPGSV,3,3,12,16,21,209,,26,59,212,,27,07,223,,32,18,008,,1*60
1755507830489,$GLGSV,2,1,07,78,21,210,16,77,75,270,37,76,42,012,27,65,27,045,26,1*75
1755507830489,$GLGSV,2,2,07,88,25,220,24,87,09,160,20,72,16,102,36,1*49
1755507830489,$GAGSV,3,1,10,10,15,299,25,12,33,284,25,19,16,007,20,21,37,052,28,7*7A
1755507830489,$GAGSV,3,2,10,23,73,146,27,26,19,156,35,33,52,206,25,04,02,314,,7*7C
1755507830489,$GAGSV,3,3,10,29,12,053,,31,28,206,,7*70
1755507830489,$GQGSV,1,1,02,02,39,077,30,03,44,147,30,1*6E
1755507830489,$GBGSV,5,1,19,16,37,345,22,13,59,357,28,09,46,323,30,07,46,164,29,1*79
1755507830489,$GBGSV,5,2,19,06,40,340,23,04,28,085,36,03,80,026,33,02,60,291,27,1*7F
1755507830489,$GBGSV,5,3,19,01,45,081,40,05,33,278,,08,64,014,,10,43,182,,1*7F
1755507830489,$GBGSV,5,4,19,20,10,341,,23,04,029,,27,28,167,,28,08,129,,1*73
1755507830489,$GBGSV,5,5,19,30,25,227,,32,40,033,,36,10,223,,1*4F
1755507830521,$GNGSA,A,3,10,18,23,25,26,28,29,31,,,,,0.9,0.6,0.7,1*30
1755507830521,$GNGSA,A,3,76,88,,,,,,,,,,,0.9,0.6,0.7,2*3B
1755507830521,$GNGSA,A,3,10,12,19,21,23,26,33,,,,,,0.9,0.6,0.7,3*37
1755507830521,$GNGSA,A,3,02,03,04,06,07,09,13,16,,,,,0.9,0.6,0.7,4*34
1755507830521,$GNGSA,A,3,03,,,,,,,,,,,,0.9,0.6,0.7,5*3E
1755507830521,$GNVTG,,T,,M,0.0,N,0.0,K,A*3D
1755507830521,$GNDTM,P90,,0000.000006,N,00000.000002,W,1.000,W84*54
1755507830521,$GNRMC,090350.00,A,0612.871349,S,10651.586929,E,0.0,,180825,0.9,W,A,V*7F
1755507830521,$GNGNS,090350.00,0612.871349,S,10651.586929,E,AAAAAN,26,0.6,12.7,32.0,,,V*07
1755507830521,$GNGGA,090350.00,0612.871349,S,10651.586929,E,1,12,0.6,12.7,M,32.0,M,,*5F
1755507831488,$GPGSV,3,1,12,10,66,016,29,18,23,158,37,23,52,122,41,25,19,039,24,1*69
1755507831488,$GPGSV,3,2,12,26,59,212,22,28,32,336,24,29,13,106,28,31,37,298,24,1*63
1755507831488,$GPGSV,3,3,12,02,01,295,,16,21,209,,27,07,223,,32,18,008,,1*64
1755507831488,$GLGSV,2,1,07,78,21,210,16,77,75,270,37,76,42,012,28,65,27,045,26,1*7A
1755507831488,$GLGSV,2,2,07,88,25,220,27,87,09,160,20,72,16,102,37,1*4B
1755507831488,$GAGSV,3,1,10,10,15,299,24,12,33,284,25,19,16,007,20,21,37,052,27,7*74
1755507831488,$GAGSV,3,2,10,23,73,146,29,26,19,156,35,33,52,206,26,04,02,314,,7*71
1755507831488,$GAGSV,3,3,10,29,12,053,,31,28,206,,7*70
1755507831488,$GQGSV,1,1,02,02,39,077,29,03,44,147,33,1*65
1755507831488,$GBGSV,5,1,19,16,37,345,24,13,59,357,27,09,46,323,30,07,46,164,27,1*7E
1755507831488,$GBGSV,5,2,19,06,40,340,26,04,28,085,35,03,80,026,33,02,60,291,28,1*76
1755507831488,$GBGSV,5,3,19,01,45,081,39,05,33,278,,08,64,014,,10,43,182,,1*71
1755507831488,$GBGSV,5,4,19,20,10,341,,23,04,029,,27,28,167,,28,08,129,,1*73
1755507831488,$GBGSV,5,5,19,30,25,227,,32,40,033,,36,10,223,,1*4F
1755507831519,$GNGSA,A,3,10,18,23,25,26,28,29,31,,,,,0.9,0.6,0.7,1*30
1755507831519,$GNGSA,A,3,76,88,,,,,,,,,,,0.9,0.6,0.7,2*3B
1755507831519,$GNGSA,A,3,10,12,19,21,23,26,33,,,,,,0.9,0.6,0.7,3*37
1755507831519,$GNGSA,A,3,02,03,04,06,07,09,13,16,,,,,0.9,0.6,0.7,4*34
1755507831519,$GNGSA,A,3,03,,,,,,,,,,,,0.9,0.6,0.7,5*3E
1755507831519,$GNVTG,,T,,M,0.0,N,0.0,K,A*3D
1755507831519,$GNDTM,P90,,0000.000006,N,00000.000002,W,1.000,W84*54
1755507831519,$GNRMC,090351.00,A,0612.871339,S,10651.586940,E,0.0,,180825,0.9,W,A,V*76
1755507831519,$GNGNS,090351.00,0612.871339,S,10651.586940,E,AAAAAN,26,0.6,12.7,32.0,,,V*0E
1755507831519,$GNGGA,090351.00,0612.871339,S,10651.586940,E,1,12,0.6,12.7,M,32.0,M,,*56
1755507832488,$GPGSV,3,1,12,10,66,016,27,18,23,158,37,23,52,122,41,25,19,039,24,1*67
1755507832488,$GPGSV,3,2,12,26,59,212,22,28,32,336,25,29,13,106,26,31,37,298,22,1*6A
1755507832488,$GPGSV,3,3,12,02,01,295,,16,21,209,,27,07,223,,32,18,008,,1*64
1755507832488,$GLGSV,2,1,07,78,21,210,16,77,75,270,36,76,42,012,28,65,27,045,25,1*78
1755507832488,$GLGSV,2,2,07,88,25,220,27,87,09,160,20,72,16,102,37,1*4B
1755507832488,$GAGSV,3,1,10,10,15,299,25,12,33,284,25,19,16,007,20,21,37,052,27,7*75
1755507832488,$GAGSV,3,2,10,23,73,146,31,26,19,156,33,33,52,206,25,04,02,314,,7*7D
1755507832488,$GAGSV,3,3,10,29,12,053,,31,28,206,,7*70
1755507832488,$GQGSV,1,1,02,02,39,077,28,03,44,147,34,1*63
1755507832488,$GBGSV,5,1,19,16,37,345,25,13,59,357,27,09,46,323,31,07,46,164,29,1*70
1755507832488,$GBGSV,5,2,19,06,40,340,24,04,28,085,36,03,80,026,32,02,60,291,28,1*76
1755507832488,$GBGSV,5,3,19,01,45,081,39,05,33,278,,08,64,014,,10,43,182,,1*71
1755507832488,$GBGSV,5,4,19,20,10,341,,23,04,029,,27,28,167,,28,08,129,,1*73
1755507832488,$GBGSV,5,5,19,30,25,227,,32,40,033,,36,10,223,,1*4F
1755507832518,$GNGSA,A,3,10,18,23,25,26,28,29,31,,,,,0.9,0.6,0.7,1*30
1755507832518,$GNGSA,A,3,76,88,,,,,,,,,,,0.9,0.6,0.7,2*3B
1755507832518,$GNGSA,A,3,10,12,19,21,23,26,33,,,,,,0.9,0.6,0.7,3*37
1755507832518,$GNGSA,A,3,02,03,04,06,07,09,13,16,,,,,0.9,0.6,0.7,4*34
1755507832518,$GNGSA,A,3,03,,,,,,,,,,,,0.9,0.6,0.7,5*3E
1755507832518,$GNVTG,,T,,M,0.0,N,0.0,K,A*3D
1755507832518,$GNDTM,P90,,0000.000006,N,00000.000002,W,1.000,W84*54
1755507832518,$GNRMC,090352.00,A,0612.871345,S,10651.586945,E,0.0,,180825,0.9,W,A,V*7B
1755507832518,$GNGNS,090352.00,0612.871345,S,10651.586945,E,AAAAAN,26,0.6,12.8,32.0,,,V*0C
1755507832518,$GNGGA,090352.00,0612.871345,S,10651.586945,E,1,12,0.6,12.8,M,32.0,M,,*54
1755507833491,$GPGSV,3,1,12,10,66,016,28,18,23,158,39,23,52,122,40,25,19,039,23,1*60
1755507833491,$GPGSV,3,2,12,26,59,212,21,28,32,336,21,29,13,106,29,31,37,298,22,1*62
1755507833491,$GPGSV,3,3,12,02,01,295,,16,21,209,,27,07,223,,32,18,008,,1*64
1755507833491,$GLGSV,2,1,07,78,21,210,16,77,75,270,37,76,42,012,29,65,27,045,27,1*7A
1755507833491,$GLGSV,2,2,07,88,25,220,26,87,09,160,20,72,16,102,32,1*4F
1755507833491,$GAGSV,3,1,10,10,15,299,25,12,33,284,25,19,16,007,18,21,37,052,29,7*70
1755507833491,$GAGSV,3,2,10,23,73,146,32,26,19,156,28,33,52,206,25,04,02,314,,7*74
1755507833491,$GAGSV,3,3,10,29,12,053,,31,28,206,,7*70
1755507833491,$GQGSV,1,1,02,02,39,077,28,03,44,147,34,1*63
1755507833491,$GBGSV,5,1,19,16,37,345,22,13,59,357,28,09,46,323,29,07,46,164,29,1*71
1755507833491,$GBGSV,5,2,19,06,40,340,25,04,28,085,38,03,80,026,32,02,60,291,28,1*79
1755507833491,$GBGSV,5,3,19,01,45,081,40,05,33,278,,08,64,014,,10,43,182,,1*7F
1755507833491,$GBGSV,5,4,19,20,10,341,,23,04,029,,27,28,167,,28,08,129,,1*73
1755507833491,$GBGSV,5,5,19,30,25,227,,32,40,033,,36,10,223,,1*4F
1755507833526,$GNGSA,A,3,10,18,23,25,26,28,29,31,,,,,0.9,0.6,0.7,1*30
1755507833526,$GNGSA,A,3,76,88,,,,,,,,,,,0.9,0.6,0.7,2*3B
1755507833526,$GNGSA,A,3,10,12,19,21,23,26,33,,,,,,0.9,0.6,0.7,3*37
1755507833526,$GNGSA,A,3,02,03,04,06,07,09,13,16,,,,,0.9,0.6,0.7,4*34
1755507833526,$GNGSA,A,3,03,,,,,,,,,,,,0.9,0.6,0.7,5*3E
1755507833526,$GNVTG,,T,,M,0.0,N,0.0,K,A*3D
1755507833526,$GNDTM,P90,,0000.000006,N,00000.000002,W,1.000,W84*54
1755507833526,$GNRMC,090353.00,A,0612.871327,S,10651.586944,E,0.0,,180825,0.9,W,A,V*7F
1755507833526,$GNGNS,090353.00,0612.871327,S,10651.586944,E,AAAAAN,26,0.6,12.8,32.0,,,V*08
1755507833526,$GNGGA,090353.00,0612.871327,S,10651.586944,E,1,12,0.6,12.8,M,32.0,M,,*50
1755507834493,$GPGSV,3,1,12,10,66,016,30,18,23,158,38,23,52,122,42,25,19,039,23,1*6A
1755507834493,$GPGSV,3,2,12,26,59,212,22,28,32,336,22,29,13,106,26,31,37,298,22,1*6D
1755507834493,$GPGSV,3,3,12,02,01,295,,16,21,209,,27,07,223,,32,18,008,,1*64
1755507834493,$GLGSV,2,1,07,78,21,210,16,77,75,270,37,76,42,012,27,65,27,045,25,1*76
1755507834493,$GLGSV,2,2,07,88,25,220,26,87,09,160,20,72,16,102,34,1*49
1755507834493,$GAGSV,3,1,10,10,15,299,23,12,33,284,21,19,16,007,18,21,37,052,29,7*72
1755507834493,$GAGSV,3,2,10,23,73,146,32,26,19,156,32,33,52,206,26,04,02,314,,7*7C
1755507834493,$GAGSV,3,3,10,29,12,053,,31,28,206,,7*70
1755507834493,$GQGSV,1,1,02,02,39,077,31,03,44,147,29,1*67
1755507834493,$GBGSV,5,1,19,16,37,345,26,13,59,357,28,09,46,323,31,07,46,164,28,1*7D
1755507834493,$GBGSV,5,2,19,06,40,340,26,04,28,085,38,03,80,026,31,02,60,291,26,1*77
1755507834493,$GBGSV,5,3,19,01,45,081,39,05,33,278,,08,64,014,,10,43,182,,1*71
1755507834493,$GBGSV,5,4,19,20,10,341,,23,04,029,,27,28,167,,28,08,129,,1*73
1755507834493,$GBGSV,5,5,19,30,25,227,,32,40,033,,36,10,223,,1*4F
1755507834523,$GNGSA,A,3,10,18,23,25,26,28,29,31,,,,,0.9,0.6,0.7,1*30
1755507834523,$GNGSA,A,3,76,88,,,,,,,,,,,0.9,0.6,0.7,2*3B
1755507834523,$GNGSA,A,3,10,12,19,21,23,26,33,,,,,,0.9,0.6,0.7,3*37
1755507834523,$GNGSA,A,3,02,03,04,06,07,09,13,16,,,,,0.9,0.6,0.7,4*34
1755507834523,$GNGSA,A,3,03,,,,,,,,,,,,0.9,0.6,0.7,5*3E
1755507834523,$GNVTG,,T,,M,0.0,N,0.0,K,A*3D
1755507834523,$GNDTM,P90,,0000.000006,N,00000.000002,W,1.000,W84*54
1755507834523,$GNRMC,090354.00,A,0612.871320,S,10651.586944,E,0.0,,180825,0.9,W,A,V*7F
1755507834523,$GNGNS,090354.00,0612.871320,S,10651.586944,E,AAAAAN,26,0.6,12.8,32.0,,,V*08
1755507834523,$GNGGA,090354.00,0612.871320,S,10651.586944,E,1,12,0.6,12.8,M,32.0,M,,*50
1755507835491,$GPGSV,3,1,12,10,66,016,31,18,23,158,38,23,52,122,42,25,19,039,21,1*69
1755507835491,$GPGSV,3,2,12,26,59,212,21,28,32,336,22,29,13,106,26,31,37,298,22,1*6E
1755507835491,$GPGSV,3,3,12,32,18,008,23,02,01,295,,16,21,209,,27,07,223,,1*65
1755507835491,$GLGSV,2,1,07,78,21,210,16,77,75,270,36,76,42,012,25,65,27,045,24,1*74
1755507835491,$GLGSV,2,2,07,88,25,220,27,87,09,160,20,72,16,102,34,1*48
1755507835491,$GAGSV,3,1,10,10,15,299,23,12,33,284,27,19,16,007,18,21,37,052,26,7*7B
1755507835491,$GAGSV,3,2,10,23,73,146,32,26,19,156,31,33,52,206,25,04,02,314,,7*7C
1755507835491,$GAGSV,3,3,10,29,12,053,,31,28,206,,7*70
1755507835491,$GQGSV,1,1,02,02,39,077,32,03,44,147,25,1*68
1755507835491,$GBGSV,5,1,19,16,37,345,24,13,59,357,29,09,46,323,31,07,46,164,29,1*7F
1755507835491,$GBGSV,5,2,19,06,40,340,27,04,28,085,38,03,80,026,33,02,60,291,26,1*74
1755507835491,$GBGSV,5,3,19,01,45,081,38,05,33,278,,08,64,014,,10,43,182,,1*70
1755507835491,$GBGSV,5,4,19,20,10,341,,23,04,029,,27,28,167,,28,08,129,,1*73
1755507835491,$GBGSV,5,5,19,30,25,227,,32,40,033,,36,10,223,,1*4F
1755507835517,$GNGSA,A,3,10,18,23,25,26,28,29,31,32,,,,0.9,0.6,0.7,1*31
1755507835517,$GNGSA,A,3,76,88,,,,,,,,,,,0.9,0.6,0.7,2*3B
1755507835517,$GNGSA,A,3,10,12,19,21,23,26,33,,,,,,0.9,0.6,0.7,3*37
1755507835517,$GNGSA,A,3,02,03,04,06,07,09,13,16,,,,,0.9,0.6,0.7,4*34
1755507835517,$GNGSA,A,3,03,,,,,,,,,,,,0.9,0.6,0.7,5*3E
1755507835517,$GNVTG,,T,,M,0.0,N,0.0,K,A*3D
1755507835517,$GNDTM,P90,,0000.000006,N,00000.000002,W,1.000,W84*54
1755507835517,$GNRMC,090355.00,A,0612.871361,S,10651.586943,E,0.0,,180825,0.9,W,A,V*7C
1755507835517,$GNGNS,090355.00,0612.871361,S,10651.586943,E,AAAAAN,27,0.6,12.9,32.0,,,V*0B
1755507835517,$GNGGA,090355.00,0612.871361,S,10651.586943,E,1,12,0.6,12.9,M,32.0,M,,*52
1755507836495,$GPGSV,3,1,12,10,66,016,29,18,23,158,37,23,52,122,42,25,19,039,21,1*6F
1755507836495,$GPGSV,3,2,12,26,59,212,21,29,13,106,23,31,37,298,18,32,18,008,23,1*6E
1755507836495,$GPGSV,3,3,12,02,01,295,,16,21,209,,27,07,223,,28,32,336,,1*69
1755507836495,$GLGSV,2,1,07,78,21,210,16,77,75,270,36,76,42,012,26,65,27,045,26,1*75
1755507836495,$GLGSV,2,2,07,88,25,220,27,87,09,160,20,72,16,102,35,1*49
1755507836495,$GAGSV,3,1,10,10,15,299,24,12,33,284,27,19,16,007,18,21,37,052,29,7*73
1755507836495,$GAGSV,3,2,10,23,73,146,32,26,19,156,30,33,52,206,26,04,02,314,,7*7E
1755507836495,$GAGSV,3,3,10,29,12,053,,31,28,206,,7*70
1755507836495,$GQGSV,1,1,02,02,39,077,33,03,44,147,30,1*6D
1755507836495,$GBGSV,5,1,19,16,37,345,24,13,59,357,28,09,46,323,30,07,46,164,28,1*7E
1755507836495,$GBGSV,5,2,19,06,40,340,24,04,28,085,38,03,80,026,33,02,60,291,26,1*77
1755507836495,$GBGSV,5,3,19,01,45,081,39,05,33,278,,08,64,014,,10,43,182,,1*71
1755507836495,$GBGSV,5,4,19,20,10,341,,23,04,029,,27,28,167,,28,08,129,,1*73
1755507836495,$GBGSV,5,5,19,30,25,227,,32,40,033,,36,10,223,,1*4F
1755507836520,$GNGSA,A,3,10,18,23,25,26,28,29,31,32,,,,0.9,0.6,0.7,1*31
1755507836520,$GNGSA,A,3,76,88,,,,,,,,,,,0.9,0.6,0.7,2*3B
1755507836520,$GNGSA,A,3,10,12,19,21,23,26,33,,,,,,0.9,0.6,0.7,3*37
1755507836520,$GNGSA,A,3,02,03,04,06,07,09,13,16,,,,,0.9,0.6,0.7,4*34
1755507836520,$GNGSA,A,3,03,,,,,,,,,,,,0.9,0.6,0.7,5*3E
1755507836520,$GNVTG,,T,,M,0.0,N,0.0,K,A*3D
1755507836520,$GNDTM,P90,,0000.000006,N,00000.000002,W,1.000,W84*54
1755507836520,$GNRMC,090356.00,A,0612.871369,S,10651.586948,E,0.0,,180825,0.9,W,A,V*7C
1755507836520,$GNGNS,090356.00,0612.871369,S,10651.586948,E,AAAAAN,27,0.6,12.9,32.0,,,V*0B
1755507836520,$GNGGA,090356.00,0612.871369,S,10651.586948,E,1,12,0.6,12.9,M,32.0,M,,*52
1755507837489,$GPGSV,3,1,12,10,66,016,29,18,23,158,37,23,52,122,42,25,19,039,22,1*6C
1755507837489,$GPGSV,3,2,12,26,59,212,21,29,13,106,26,31,37,298,18,02,01,295,,1*67
1755507837489,$GPGSV,3,3,12,16,21,209,,27,07,223,,28,32,336,,32,18,008,,1*64
1755507837489,$GLGSV,2,1,07,78,21,210,16,77,75,270,36,76,42,012,27,65,27,045,26,1*74
1755507837489,$GLGSV,2,2,07,88,25,220,28,87,09,160,20,72,16,102,37,1*44
1755507837489,$GAGSV,3,1,10,10,15,299,24,12,33,284,27,19,16,007,18,21,37,052,28,7*72
1755507837489,$GAGSV,3,2,10,23,73,146,27,26,19,156,29,33,52,206,25,04,02,314,,7*71
1755507837489,$GAGSV,3,3,10,29,12,053,,31,28,206,,7*70
1755507837489,$GQGSV,1,1,02,02,39,077,35,03,44,147,30,1*6B
1755507837489,$GBGSV,5,1,19,16,37,345,25,13,59,357,25,09,46,323,30,07,46,164,29,1*73
1755507837489,$GBGSV,5,2,19,06,40,340,24,04,28,085,38,03,80,026,32,02,60,291,28,1*78
1755507837489,$GBGSV,5,3,19,01,45,081,39,05,33,278,,08,64,014,,10,43,182,,1*71
1755507837489,$GBGSV,5,4,19,20,10,341,,23,04,029,,27,28,167,,28,08,129,,1*73
1755507837489,$GBGSV,5,5,19,30,25,227,,32,40,033,,36,10,223,,1*4F
1755507837517,$GNGSA,A,3,10,18,23,25,26,28,29,31,32,,,,0.9,0.6,0.7,1*31
1755507837517,$GNGSA,A,3,76,88,,,,,,,,,,,0.9,0.6,0.7,2*3B
1755507837517,$GNGSA,A,3,10,12,19,21,23,26,33,,,,,,0.9,0.6,0.7,3*37
1755507837517,$GNGSA,A,3,02,03,04,06,07,09,13,16,,,,,0.9,0.6,0.7,4*34
1755507837517,$GNGSA,A,3,03,,,,,,,,,,,,0.9,0.6,0.7,5*3E
1755507837517,$GNVTG,,T,,M,0.0,N,0.0,K,A*3D
1755507837517,$GNDTM,P90,,0000.000006,N,00000.000002,W,1.000,W84*54
1755507837517,$GNRMC,090357.00,A,0612.871366,S,10651.586973,E,0.0,,180825,0.9,W,A,V*7A
1755507837517,$GNGNS,090357.00,0612.871366,S,10651.586973,E,AAAAAN,27,0.6,13.0,32.0,,,V*05
1755507837517,$GNGGA,090357.00,0612.871366,S,10651.586973,E,1,12,0.6,13.0,M,32.0,M,,*5C
1755507838488,$GPGSV,3,1,12,10,66,016,26,18,23,158,38,23,52,122,41,25,19,039,22,1*6F
1755507838488,$GPGSV,3,2,12,28,32,336,21,29,13,106,30,31,37,298,21,02,01,295,,1*6E
1755507838488,$GPGSV,3,3,12,16,21,209,,26,59,212,,27,07,223,,32,18,008,,1*60
1755507838488,$GLGSV,2,1,07,78,21,210,14,77,75,270,35,76,42,012,25,65,27,045,27,1*76
1755507838488,$GLGSV,2,2,07,88,25,220,28,87,09,160,20,72,16,102,35,1*46
1755507838488,$GAGSV,3,1,10,10,15,299,23,12,33,284,20,19,16,007,18,21,37,052,31,7*7A
1755507838488,$GAGSV,3,2,10,23,73,146,30,26,19,156,27,33,52,206,26,04,02,314,,7*7A
1755507838488,$GAGSV,3,3,10,29,12,053,,31,28,206,,7*70
1755507838488,$GQGSV,1,1,02,02,39,077,32,03,44,147,22,1*6F
1755507838488,$GBGSV,5,1,19,16,37,345,23,13,59,357,25,09,46,323,28,07,46,164,30,1*74
1755507838488,$GBGSV,5,2,19,06,40,340,22,04,28,085,37,03,80,026,32,02,60,291,28,1*71
1755507838488,$GBGSV,5,3,19,01,45,081,39,05,33,278,,08,64,014,,10,43,182,,1*71
1755507838488,$GBGSV,5,4,19,20,10,341,,23,04,029,,27,28,167,,28,08,129,,1*73
1755507838488,$GBGSV,5,5,19,30,25,227,,32,40,033,,36,10,223,,1*4F
1755507838516,$GNGSA,A,3,10,18,23,25,26,28,29,31,32,,,,0.9,0.6,0.7,1*31
1755507838516,$GNGSA,A,3,76,88,,,,,,,,,,,0.9,0.6,0.7,2*3B
1755507838516,$GNGSA,A,3,10,12,19,21,23,26,33,,,,,,0.9,0.6,0.7,3*37
1755507838516,$GNGSA,A,3,02,03,04,06,07,09,13,16,,,,,0.9,0.6,0.7,4*34
1755507838516,$GNGSA,A,3,03,,,,,,,,,,,,0.9,0.6,0.7,5*3E
1755507838516,$GNVTG,,T,,M,0.0,N,0.0,K,A*3D
1755507838516,$GNDTM,P90,,0000.000006,N,00000.000002,W,1.000,W84*54
1755507838516,$GNRMC,090358.00,A,0612.871366,S,10651.586970,E,0.0,,180825,0.9,W,A,V*76
1755507838516,$GNGNS,090358.00,0612.871366,S,10651.586970,E,AAAAAN,27,0.6,13.0,32.0,,,V*09
1755507838516,$GNGGA,090358.00,0612.871366,S,10651.586970,E,1,12,0.6,13.0,M,32.0,M,,*50
1755507839485,$GPGSV,3,1,12,10,66,016,29,18,23,158,38,23,52,122,41,25,19,039,22,1*60
1755507839485,$GPGSV,3,2,12,28,32,336,23,29,13,106,33,31,37,298,24,02,01,295,,1*6A
1755507839485,$GPGSV,3,3,12,16,21,209,,26,59,212,,27,07,223,,32,18,008,,1*60
1755507839485,$GLGSV,2,1,07,78,21,210,14,77,75,270,37,76,42,012,26,65,27,045,26,1*76
1755507839485,$GLGSV,2,2,07,88,25,220,28,87,09,160,20,72,16,102,37,1*44
1755507839485,$GAGSV,3,1,10,10,15,299,23,12,33,284,20,19,16,007,18,21,37,052,30,7*7B
1755507839485,$GAGSV,3,2,10,23,73,146,30,26,19,156,27,33,52,206,26,04,02,314,,7*7A
1755507839485,$GAGSV,3,3,10,29,12,053,,31,28,206,,7*70
1755507839485,$GQGSV,1,1,02,02,39,077,32,03,44,147,24,1*69
1755507839485,$GBGSV,5,1,19,16,37,345,23,13,59,357,21,09,46,323,29,07,46,164,29,1*79
1755507839485,$GBGSV,5,2,19,06,40,340,24,04,28,085,36,03,80,026,32,02,60,291,28,1*76
1755507839485,$GBGSV,5,3,19,01,45,081,39,05,33,278,,08,64,014,,10,43,182,,1*71
1755507839485,$GBGSV,5,4,19,20,10,341,,23,04,029,,27,28,167,,28,08,129,,1*73
1755507839485,$GBGSV,5,5,19,30,25,227,,32,40,033,,36,10,223,,1*4F
1755507839513,$GNGSA,A,3,10,18,23,25,26,28,29,31,32,,,,0.9,0.6,0.7,1*31
1755507839513,$GNGSA,A,3,76,88,,,,,,,,,,,0.9,0.6,0.7,2*3B
1755507839513,$GNGSA,A,3,10,12,21,23,26,33,,,,,,,0.9,0.6,0.7,3*3F
1755507839513,$GNGSA,A,3,02,03,04,06,07,09,13,16,,,,,0.9,0.6,0.7,4*34
1755507839513,$GNGSA,A,3,03,,,,,,,,,,,,0.9,0.6,0.7,5*3E
1755507839513,$GNVTG,,T,,M,0.0,N,0.0,K,A*3D
1755507839513,$GNDTM,P90,,0000.000006,N,00000.000002,W,1.000,W84*54
1755507839513,$GNRMC,090359.00,A,0612.871364,S,10651.586971,E,0.0,,180825,0.9,W,A,V*74
1755507839513,$GNGNS,090359.00,0612.871364,S,10651.586971,E,AAAAAN,26,0.6,13.0,32.0,,,V*0A
1755507839513,$GNGGA,090359.00,0612.871364,S,10651.586971,E,1,12,0.6,13.0,M,32.0,M,,*52
1755507840488,$GPGSV,3,1,12,10,66,016,28,18,23,158,38,23,52,122,42,25,19,039,22,1*62
1755507840488,$GPGSV,3,2,12,28,32,336,23,29,13,106,30,31,37,298,22,02,01,295,,1*6F
1755507840488,$GPGSV,3,3,12,16,21,209,,26,59,212,,27,07,223,,32,18,008,,1*60
1755507840488,$GLGSV,2,1,07,78,21,210,14,77,75,270,36,76,42,012,28,65,27,045,26,1*79
1755507840488,$GLGSV,2,2,07,88,25,220,29,87,09,160,20,72,16,102,37,1*45
1755507840488,$GAGSV,3,1,10,10,15,299,22,12,33,284,20,19,16,007,18,21,37,052,30,7*7A
1755507840488,$GAGSV,3,2,10,23,73,146,30,26,19,156,29,33,52,206,22,04,02,314,,7*70
1755507840488,$GAGSV,3,3,10,29,12,053,,31,28,206,,7*70
1755507840488,$GQGSV,1,1,02,02,39,077,35,03,44,147,28,1*62
1755507840488,$GBGSV,5,1,19,16,37,345,23,13,59,357,21,09,46,323,30,07,46,164,29,1*71
1755507840488,$GBGSV,5,2,19,06,40,340,25,04,28,085,38,03,80,026,30,02,60,291,28,1*7B
1755507840488,$GBGSV,5,3,19,01,45,081,39,05,33,278,,08,64,014,,10,43,182,,1*71
1755507840488,$GBGSV,5,4,19,20,10,341,,23,04,029,,27,28,167,,28,08,129,,1*73
1755507840488,$GBGSV,5,5,19,30,25,227,,32,40,033,,36,10,223,,1*4F
1755507840534,$GNGSA,A,3,10,18,23,25,26,28,29,31,32,,,,0.9,0.6,0.7,1*31
1755507840534,$GNGSA,A,3,76,88,,,,,,,,,,,0.9,0.6,0.7,2*3B
1755507840534,$GNGSA,A,3,10,12,21,23,26,33,,,,,,,0.9,0.6,0.7,3*3F
1755507840534,$GNGSA,A,3,02,03,04,06,07,09,13,16,,,,,0.9,0.6,0.7,4*34
1755507840534,$GNGSA,A,3,03,,,,,,,,,,,,0.9,0.6,0.7,5*3E
1755507840534,$GNVTG,,T,,M,0.0,N,0.0,K,A*3D
1755507840534,$GNDTM,P90,,0000.000006,N,00000.000002,W,1.000,W84*54
1755507840534,$GNRMC,090400.00,A,0612.871360,S,10651.586973,E,0.0,,180825,0.9,W,A,V*79
1755507840534,$GNGNS,090400.00,0612.871360,S,10651.586973,E,AAAAAN,26,0.6,13.0,32.0,,,V*07
1755507840534,$GNGGA,090400.00,0612.871360,S,10651.586973,E,1,12,0.6,13.0,M,32.0,M,,*5F
1755507841491,$GPGSV,3,1,12,10,66,018,29,18,23,158,37,23,52,122,41,25,19,039,18,1*68
1755507841491,$GPGSV,3,2,12,29,13,106,26,31,37,298,27,02,01,295,,16,21,209,,1*6E
1755507841491,$GPGSV,3,3,12,26,59,212,,27,07,223,,28,32,336,,32,18,008,,1*62
1755507841491,$GLGSV,2,1,07,78,21,210,14,77,75,270,36,76,42,012,27,65,27,045,23,1*73
1755507841491,$GLGSV,2,2,07,88,25,220,27,87,09,160,20,72,16,102,35,1*49
1755507841491,$GAGSV,3,1,10,10,15,299,24,12,33,284,20,19,16,007,18,21,37,052,31,7*7D
1755507841491,$GAGSV,3,2,10,23,73,146,27,26,19,156,31,33,52,206,24,04,02,314,,7*79
1755507841491,$GAGSV,3,3,10,29,12,053,,31,28,206,,7*70
1755507841491,$GQGSV,1,1,02,02,39,077,35,03,44,147,30,1*6B
1755507841491,$GBGSV,5,1,19,16,37,345,21,13,59,357,23,10,43,182,16,09,46,323,30,1*76
1755507841491,$GBGSV,5,2,19,07,46,164,29,06,40,340,25,04,28,085,37,03,80,026,30,1*7D
1755507841491,$GBGSV,5,3,19,02,60,291,28,01,45,081,39,05,33,278,,08,64,014,,1*78
1755507841491,$GBGSV,5,4,19,20,10,341,,23,04,029,,27,28,167,,28,08,129,,1*73
1755507841491,$GBGSV,5,5,19,30,25,227,,32,40,033,,36,10,223,,1*4F
1755507841521,$GNGSA,A,3,10,18,23,25,28,29,31,,,,,,0.9,0.6,0.7,1*34
1755507841521,$GNGSA,A,3,76,88,,,,,,,,,,,0.9,0.6,0.7,2*3B
1755507841521,$GNGSA,A,3,10,12,21,23,26,33,,,,,,,0.9,0.6,0.7,3*3F
1755507841521,$GNGSA,A,3,02,03,04,06,07,09,10,13,16,,,,0.9,0.6,0.7,4*35
1755507841521,$GNGSA,A,3,03,,,,,,,,,,,,0.9,0.6,0.7,5*3E
1755507841521,$GNVTG,,T,,M,0.0,N,0.0,K,A*3D
1755507841521,$GNDTM,P90,,0000.000006,N,00000.000002,W,1.000,W84*54
1755507841521,$GNRMC,090401.00,A,0612.871359,S,10651.586972,E,0.0,,180825,0.9,W,A,V*73
1755507841521,$GNGNS,090401.00,0612.871359,S,10651.586972,E,AAAAAN,25,0.6,13.0,32.0,,,V*0E
1755507841521,$GNGGA,090401.00,0612.871359,S,10651.586972,E,1,12,0.6,13.0,M,32.0,M,,*55
1755507842489,$GPGSV,3,1,12,10,66,018,25,18,23,158,37,23,52,122,42,25,19,039,18,1*67
1755507842489,$GPGSV,3,2,12,26,59,212,22,29,13,106,24,31,37,298,23,02,01,295,,1*6E
1755507842489,$GPGSV,3,3,12,16,21,209,,27,07,223,,28,32,336,,32,18,008,,1*64
1755507842489,$GLGSV,2,1,07,78,21,210,14,77,75,270,36,76,42,012,28,65,27,045,23,1*7C
1755507842489,$GLGSV,2,2,07,88,25,220,26,87,09,160,20,72,16,102,35,1*48
1755507842489,$GAGSV,3,1,10,10,15,299,23,12,33,284,20,19,16,007,18,21,37,052,32,7*79
1755507842489,$GAGSV,3,2,10,23,73,146,27,26,19,156,34,31,28,206,16,33,52,206,22,7*71
1755507842489,$GAGSV,3,3,10,04,02,314,,29,12,053,,7*7C
1755507842489,$GQGSV,1,1,02,02,39,077,32,03,44,147,31,1*6D
1755507842489,$GBGSV,5,1,19,16,37,345,22,13,59,357,26,09,46,323,30,07,46,164,28,1*76
1755507842489,$GBGSV,5,2,19,06,40,340,26,04,28,085,35,03,80,026,31,02,60,291,28,1*74
1755507842489,$GBGSV,5,3,19,01,45,081,40,05,33,278,,08,64,014,,10,43,182,,1*7F
1755507842489,$GBGSV,5,4,19,20,10,341,,23,04,029,,27,28,167,,28,08,129,,1*73
1755507842489,$GBGSV,5,5,19,30,25,227,,32,40,033,,36,10,223,,1*4F
1755507842517,$GNGSA,A,3,10,18,23,25,26,28,29,31,,,,,0.9,0.6,0.7,1*30
1755507842517,$GNGSA,A,3,76,88,,,,,,,,,,,0.9,0.6,0.7,2*3B
1755507842517,$GNGSA,A,3,10,12,21,23,26,31,33,,,,,,0.9,0.6,0.7,3*3D
1755507842517,$GNGSA,A,3,02,03,04,06,07,09,10,13,16,,,,0.9,0.6,0.7,4*35
1755507842517,$GNGSA,A,3,03,,,,,,,,,,,,0.9,0.6,0.7,5*3E
1755507842517,$GNVTG,,T,,M,0.0,N,0.0,K,A*3D
1755507842517,$GNDTM,P90,,0000.000006,N,00000.000002,W,1.000,W84*54
1755507842517,$GNRMC,090402.00,A,0612.871358,S,10651.586972,E,0.0,,180825,0.9,W,A,V*71
1755507842517,$GNGNS,090402.00,0612.871358,S,10651.586972,E,AAAAAN,27,0.6,13.0,32.0,,,V*0E
1755507842517,$GNGGA,090402.00,0612.871358,S,10651.586972,E,1,12,0.6,13.0,M,32.0,M,,*57
1755507843489,$GPGSV,3,1,12,10,66,018,30,18,23,158,37,23,52,122,42,25,19,039,18,1*63
1755507843489,$GPGSV,3,2,12,26,59,212,22,28,32,336,21,29,13,106,26,31,37,298,23,1*6F
1755507843489,$GPGSV,3,3,12,02,01,295,,16,21,209,,27,07,223,,32,18,008,,1*64
1755507843489,$GLGSV,2,1,07,78,21,210,14,77,75,270,36,76,42,012,28,65,27,045,25,1*7A
1755507843489,$GLGSV,2,2,07,88,25,220,28,87,09,160,20,72,16,102,32,1*41
1755507843489,$GAGSV,3,1,10,10,15,299,23,12,33,284,20,19,16,007,18,21,37,052,30,7*7B
1755507843489,$GAGSV,3,2,10,23,73,146,28,26,19,156,33,31,28,206,16,33,52,206,23,7*78
1755507843489,$GAGSV,3,3,10,04,02,314,,29,12,053,,7*7C
1755507843489,$GQGSV,1,1,02,02,39,077,31,03,44,147,34,1*6B
1755507843489,$GBGSV,5,1,19,16,37,345,22,13,59,357,26,09,46,323,31,07,46,164,28,1*77
1755507843489,$GBGSV,5,2,19,06,40,340,26,04,28,085,35,03,80,026,31,02,60,291,28,1*74
1755507843489,$GBGSV,5,3,19,01,45,081,41,05,33,278,,08,64,014,,10,43,182,,1*7E
1755507843489,$GBGSV,5,4,19,20,10,341,,23,04,029,,27,28,167,,28,08,129,,1*73
1755507843489,$GBGSV,5,5,19,30,25,227,,32,40,033,,36,10,223,,1*4F
1755507843527,$GNGSA,A,3,10,18,23,25,26,28,29,31,,,,,0.9,0.6,0.7,1*30
1755507843527,$GNGSA,A,3,76,88,,,,,,,,,,,0.9,0.6,0.7,2*3B
1755507843527,$GNGSA,A,3,10,12,21,23,26,31,33,,,,,,0.9,0.6,0.7,3*3D
1755507843527,$GNGSA,A,3,02,03,04,06,07,09,10,13,16,,,,0.9,0.6,0.7,4*35
1755507843527,$GNGSA,A,3,03,,,,,,,,,,,,0.9,0.6,0.7,5*3E
1755507843527,$GNVTG,,T,,M,0.0,N,0.0,K,A*3D
1755507843527,$GNDTM,P90,,0000.000006,N,00000.000002,W,1.000,W84*54
1755507843527,$GNRMC,090403.00,A,0612.871359,S,10651.586956,E,0.0,,180825,0.9,W,A,V*77
1755507843527,$GNGNS,090403.00,0612.871359,S,10651.586956,E,AAAAAN,27,0.6,13.0,32.0,,,V*08
1755507843527,$GNGGA,090403.00,0612.871359,S,10651.586956,E,1,12,0.6,13.0,M,32.0,M,,*51
1755507844490,$GPGSV,3,1,12,10,66,018,30,18,23,158,36,23,52,122,41,25,19,039,18,1*61
1755507844490,$GPGSV,3,2,12,26,59,212,22,28,32,336,25,29,13,106,25,31,37,298,23,1*68
1755507844490,$GPGSV,3,3,12,02,01,295,,16,21,209,,27,07,223,,32,18,008,,1*64
1755507844490,$GLGSV,2,1,07,78,21,210,14,77,75,270,35,76,42,012,29,65,27,045,24,1*79
1755507844490,$GLGSV,2,2,07,88,25,220,27,87,09,160,20,72,16,102,32,1*4E
1755507844490,$GAGSV,3,1,10,10,15,299,23,12,33,284,20,19,16,007,18,21,37,052,31,7*7A
1755507844490,$GAGSV,3,2,10,23,73,146,29,26,19,156,32,31,28,206,16,33,52,206,25,7*7E
1755507844490,$GAGSV,3,3,10,04,02,314,,29,12,053,,7*7C
1755507844490,$GQGSV,1,1,02,02,39,077,28,03,44,147,32,1*65
1755507844490,$GBGSV,5,1,19,16,37,345,21,13,59,357,23,09,46,323,31,07,46,164,29,1*70
1755507844490,$GBGSV,5,2,19,06,40,340,26,04,28,085,35,03,80,026,31,02,60,291,28,1*74
1755507844490,$GBGSV,5,3,19,01,45,081,40,05,33,278,,08,64,014,,10,43,182,,1*7F
1755507844490,$GBGSV,5,4,19,20,10,341,,23,04,029,,27,28,167,,28,08,129,,1*73
1755507844490,$GBGSV,5,5,19,30,25,227,,32,40,033,,36,10,223,,1*4F
1755507844518,$GNGSA,A,3,10,18,23,25,26,28,29,31,,,,,0.9,0.6,0.7,1*30
1755507844518,$GNGSA,A,3,76,88,,,,,,,,,,,0.9,0.6,0.7,2*3B
1755507844518,$GNGSA,A,3,10,21,23,26,31,33,,,,,,,0.9,0.6,0.7,3*3E
1755507844518,$GNGSA,A,3,02,03,04,06,07,09,10,13,16,,,,0.9,0.6,0.7,4*35
1755507844518,$GNGSA,A,3,03,,,,,,,,,,,,0.9,0.6,0.7,5*3E
1755507844518,$GNVTG,,T,,M,0.0,N,0.0,K,A*3D
1755507844518,$GNDTM,P90,,0000.000006,N,00000.000002,W,1.000,W84*54
1755507844518,$GNRMC,090404.00,A,0612.871359,S,10651.586952,E,0.0,,180825,0.9,W,A,V*74
1755507844518,$GNGNS,090404.00,0612.871359,S,10651.586952,E,AAAAAN,26,0.6,13.0,32.0,,,V*0A
1755507844518,$GNGGA,090404.00,0612.871359,S,10651.586952,E,1,12,0.6,13.0,M,32.0,M,,*52
1755507845490,$GPGSV,3,1,12,10,66,018,30,18,23,158,37,23,52,122,42,25,19,039,18,1*63
1755507845490,$GPGSV,3,2,12,28,32,336,23,29,13,106,29,31,37,298,23,02,01,295,,1*66
1755507845490,$GPGSV,3,3,12,16,21,209,,26,59,212,,27,07,223,,32,18,008,,1*60
1755507845490,$GLGSV,2,1,07,78,21,210,14,77,75,270,36,76,42,012,28,65,27,045,24,1*7B
1755507845490,$GLGSV,2,2,07,88,25,220,27,87,09,160,20,72,16,102,31,1*4D
1755507845490,$GAGSV,3,1,10,10,15,299,23,12,33,284,19,19,16,007,18,21,37,052,30,7*71
1755507845490,$GAGSV,3,2,10,23,73,146,27,26,19,156,32,31,28,206,19,33,52,206,23,7*79
1755507845490,$GAGSV,3,3,10,04,02,314,,29,12,053,,7*7C
1755507845490,$GQGSV,1,1,02,02,39,077,28,03,44,147,31,1*66
1755507845490,$GBGSV,5,1,19,16,37,345,21,13,59,357,24,09,46,323,30,07,46,164,29,1*76
1755507845490,$GBGSV,5,2,19,06,40,340,27,04,28,085,35,03,80,026,31,02,60,291,28,1*75
1755507845490,$GBGSV,5,3,19,01,45,081,40,05,33,278,,08,64,014,,10,43,182,,1*7F
1755507845490,$GBGSV,5,4,19,20,10,341,,23,04,029,,27,28,167,,28,08,129,,1*73
1755507845490,$GBGSV,5,5,19,30,25,227,,32,40,033,,36,10,223,,1*4F
1755507845517,$GNGSA,A,3,10,18,23,25,26,28,29,31,,,,,0.9,0.6,0.7,1*30
1755507845517,$GNGSA,A,3,76,88,,,,,,,,,,,0.9,0.6,0.7,2*3B
1755507845517,$GNGSA,A,3,10,12,21,23,26,31,33,,,,,,0.9,0.6,0.7,3*3D
1755507845517,$GNGSA,A,3,02,03,04,06,07,09,10,13,16,,,,0.9,0.6,0.7,4*35
1755507845517,$GNGSA,A,3,03,,,,,,,,,,,,0.9,0.6,0.7,5*3E
1755507845517,$GNVTG,,T,,M,0.0,N,0.0,K,A*3D
1755507845517,$GNDTM,P90,,0000.000006,N,00000.000002,W,1.000,W84*54
1755507845517,$GNRMC,090405.00,A,0612.871350,S,10651.586961,E,0.0,,180825,0.9,W,A,V*7C
1755507845517,$GNGNS,090405.00,0612.871350,S,10651.586961,E,AAAAAN,27,0.6,13.0,32.0,,,V*03
1755507845517,$GNGGA,090405.00,0612.871350,S,10651.586961,E,1,12,0.6,13.0,M,32.0,M,,*5A
1755507846491,$GPGSV,3,1,12,10,66,018,26,18,23,158,37,23,52,122,42,25,19,039,22,1*6D
1755507846491,$GPGSV,3,2,12,28,32,336,23,29,13,106,31,31,37,298,20,02,01,295,,1*6C
1755507846491,$GPGSV,3,3,12,16,21,209,,26,59,212,,27,07,223,,32,18,008,,1*60
1755507846491,$GLGSV,2,1,07,78,21,210,18,77,75,270,37,76,42,012,26,65,27,045,22,1*7E
1755507846491,$GLGSV,2,2,07,88,25,220,28,87,09,160,15,72,16,102,38,1*4D
1755507846491,$GAGSV,3,1,10,10,15,299,20,12,33,284,19,19,16,007,18,21,37,052,30,7*72
1755507846491,$GAGSV,3,2,10,23,73,146,28,26,19,156,27,31,28,206,19,33,52,206,24,7*75
1755507846491,$GAGSV,3,3,10,04,02,314,,29,12,053,,7*7C
1755507846491,$GQGSV,1,1,02,02,39,077,33,03,44,147,29,1*65
1755507846491,$GBGSV,5,1,19,16,37,345,23,13,59,357,23,09,46,323,29,07,46,164,26,1*74
1755507846491,$GBGSV,5,2,19,06,40,340,25,04,28,085,36,03,80,026,30,02,60,291,26,1*7B
1755507846491,$GBGSV,5,3,19,01,45,081,39,05,33,278,,08,64,014,,10,43,182,,1*71
1755507846491,$GBGSV,5,4,19,20,10,341,,23,04,029,,27,28,167,,28,08,129,,1*73
1755507846491,$GBGSV,5,5,19,30,25,227,,32,40,033,,36,10,223,,1*4F
1755507846532,$GNGSA,A,3,10,18,23,25,26,28,29,31,,,,,0.9,0.6,0.7,1*30
1755507846532,$GNGSA,A,3,76,88,,,,,,,,,,,0.9,0.6,0.7,2*3B
1755507846532,$GNGSA,A,3,10,12,21,23,26,31,33,,,,,,0.9,0.6,0.7,3*3D
1755507846532,$GNGSA,A,3,02,03,04,06,07,09,10,13,16,,,,0.9,0.6,0.7,4*35
1755507846532,$GNGSA,A,3,03,,,,,,,,,,,,0.9,0.6,0.7,5*3E
1755507846532,$GNVTG,,T,,M,0.0,N,0.0,K,A*3D
1755507846532,$GNDTM,P90,,0000.000006,N,00000.000002,W,1.000,W84*54
1755507846532,$GNRMC,090406.00,A,0612.871348,S,10651.586966,E,0.0,,180825,0.9,W,A,V*71
1755507846532,$GNGNS,090406.00,0612.871348,S,10651.586966,E,AAAAAN,27,0.6,13.0,32.0,,,V*0E
1755507846532,$GNGGA,090406.00,0612.871348,S,10651.586966,E,1,12,0.6,13.0,M,32.0,M,,*57
1755507847491,$GPGSV,3,1,12,10,66,018,23,18,23,158,39,23,52,122,41,25,19,039,22,1*65
1755507847491,$GPGSV,3,2,12,28,32,336,23,29,13,106,34,31,37,298,28,02,01,295,,1*61
1755507847491,$GPGSV,3,3,12,16,21,209,,26,59,212,,27,07,223,,32,18,008,,1*60
1755507847491,$GLGSV,2,1,07,78,21,210,18,77,75,270,36,76,42,012,28,65,27,045,23,1*70
1755507847491,$GLGSV,2,2,07,88,25,220,28,87,09,160,15,72,16,102,38,1*4D
1755507847491,$GAGSV,3,1,10,10,15,299,23,12,33,284,19,19,16,007,18,21,37,052,29,7*79
1755507847491,$GAGSV,3,2,10,23,73,146,32,26,19,156,28,31,28,206,19,33,52,206,23,7*76
1755507847491,$GAGSV,3,3,10,04,02,314,,29,12,053,,7*7C
1755507847491,$GQGSV,1,1,02,02,39,077,34,03,44,147,22,1*69
1755507847491,$GBGSV,5,1,19,16,37,345,25,13,59,357,23,09,46,323,30,07,46,164,26,1*7A
1755507847491,$GBGSV,5,2,19,06,40,340,25,04,28,085,37,03,80,026,30,02,60,291,26,1*7A
1755507847491,$GBGSV,5,3,19,01,45,081,37,05,33,278,,08,64,014,,10,43,182,,1*7F
1755507847491,$GBGSV,5,4,19,20,10,341,,23,04,029,,27,28,167,,28,08,129,,1*73
1755507847491,$GBGSV,5,5,19,30,25,227,,32,40,033,,36,10,223,,1*4F
1755507847518,$GNGSA,A,3,10,18,23,25,26,28,29,31,,,,,0.9,0.6,0.7,1*30
1755507847518,$GNGSA,A,3,76,88,,,,,,,,,,,0.9,0.6,0.7,2*3B
1755507847518,$GNGSA,A,3,10,12,21,23,26,31,33,,,,,,0.9,0.6,0.7,3*3D
1755507847518,$GNGSA,A,3,02,03,04,06,07,09,13,16,,,,,0.9,0.6,0.7,4*34
1755507847518,$GNGSA,A,3,03,,,,,,,,,,,,0.9,0.6,0.7,5*3E
1755507847518,$GNVTG,,T,,M,0.0,N,0.0,K,A*3D
1755507847518,$GNDTM,P90,,0000.000006,N,00000.000002,W,1.000,W84*54
1755507847518,$GNRMC,090407.00,A,0612.871345,S,10651.586966,E,0.0,,180825,0.9,W,A,V*7D
1755507847518,$GNGNS,090407.00,0612.871345,S,10651.586966,E,AAAAAN,26,0.6,13.0,32.0,,,V*03
1755507847518,$GNGGA,090407.00,0612.871345,S,10651.586966,E,1,12,0.6,13.0,M,32.0,M,,*5B
1755507848488,$GPGSV,3,1,12,10,66,018,25,18,23,158,38,23,52,122,41,25,19,039,22,1*62
1755507848488,$GPGSV,3,2,12,28,32,336,23,29,13,106,34,31,37,298,24,02,01,295,,1*6D
1755507848488,$GPGSV,3,3,12,16,21,209,,26,59,212,,27,07,223,,32,18,008,,1*60
1755507848488,$GLGSV,2,1,07,78,21,210,22,77,75,270,37,76,42,012,29,65,27,045,23,1*79
1755507848488,$GLGSV,2,2,07,88,25,220,29,87,09,160,15,72,16,102,37,1*43
1755507848488,$GAGSV,3,1,10,10,15,299,23,12,33,284,20,19,16,007,18,21,37,052,30,7*7B
1755507848488,$GAGSV,3,2,10,23,73,146,31,26,19,156,27,31,28,206,19,33,52,206,25,7*7C
1755507848488,$GAGSV,3,3,10,04,02,314,,29,12,053,,7*7C
1755507848488,$GQGSV,1,1,02,02,39,077,34,03,44,147,28,1*63
1755507848488,$GBGSV,5,1,19,16,37,345,24,13,59,357,21,10,43,182,17,09,46,323,30,1*70
1755507848488,$GBGSV,5,2,19,07,46,164,26,06,40,340,25,04,28,085,37,03,80,026,30,1*72
1755507848488,$GBGSV,5,3,19,02,60,291,26,01,45,081,38,05,33,278,,08,64,014,,1*77
1755507848488,$GBGSV,5,4,19,20,10,341,,23,04,029,,27,28,167,,28,08,129,,1*73
1755507848488,$GBGSV,5,5,19,30,25,227,,32,40,033,,36,10,223,,1*4F
1755507848516,$GNGSA,A,3,10,18,23,25,28,29,31,,,,,,0.9,0.5,0.7,1*37
1755507848516,$GNGSA,A,3,72,76,77,88,,,,,,,,,0.9,0.5,0.7,2*3D
1755507848516,$GNGSA,A,3,10,12,21,23,26,31,33,,,,,,0.9,0.5,0.7,3*3E
1755507848516,$GNGSA,A,3,02,03,04,06,07,09,10,13,16,,,,0.9,0.5,0.7,4*36
1755507848516,$GNGSA,A,3,03,,,,,,,,,,,,0.9,0.5,0.7,5*3D
1755507848516,$GNVTG,,T,,M,0.0,N,0.0,K,A*3D
1755507848516,$GNDTM,P90,,0000.000006,N,00000.000002,W,1.000,W84*54
1755507848516,$GNRMC,090408.00,A,0612.871371,S,10651.586838,E,0.0,,180825,0.9,W,A,V*7F
1755507848516,$GNGNS,090408.00,0612.871371,S,10651.586838,E,AAAAAN,28,0.5,13.3,32.0,,,V*0F
1755507848516,$GNGGA,090408.00,0612.871371,S,10651.586838,E,1,12,0.5,13.3,M,32.0,M,,*59
1755507849489,$GPGSV,3,1,12,10,66,018,26,18,23,158,37,23,52,122,41,25,19,039,22,1*6E
1755507849489,$GPGSV,3,2,12,29,13,106,30,31,37,298,24,02,01,295,,16,21,209,,1*6A
1755507849489,$GPGSV,3,3,12,26,59,212,,27,07,223,,28,32,336,,32,18,008,,1*62
1755507849489,$GLGSV,2,1,07,78,21,210,22,77,75,271,36,76,42,012,28,65,27,045,23,1*78
1755507849489,$GLGSV,2,2,07,88,25,220,28,87,09,160,15,72,16,102,36,1*43
1755507849489,$GAGSV,3,1,10,10,15,299,23,12,33,284,25,19,16,007,18,21,37,052,29,7*76
1755507849489,$GAGSV,3,2,10,23,73,146,29,26,19,156,25,31,28,206,19,33,52,206,25,7*77
1755507849489,$GAGSV,3,3,10,04,02,314,,29,12,053,,7*7C
1755507849489,$GQGSV,1,1,02,02,39,077,30,03,44,147,26,1*69
1755507849489,$GBGSV,5,1,19,16,37,345,24,13,59,357,25,10,43,182,17,09,46,323,30,1*74
1755507849489,$GBGSV,5,2,19,07,46,164,29,06,40,340,26,04,28,085,36,03,80,026,32,1*7D
1755507849489,$GBGSV,5,3,19,02,60,291,27,01,45,081,39,05,33,278,,08,64,014,,1*77
1755507849489,$GBGSV,5,4,19,20,10,341,,23,04,029,,27,28,167,,28,08,129,,1*73
1755507849489,$GBGSV,5,5,19,30,25,227,,32,40,033,,36,10,223,,1*4F
1755507849516,$GNGSA,A,3,10,18,23,25,28,29,31,,,,,,0.9,0.5,0.7,1*37
1755507849516,$GNGSA,A,3,72,76,77,88,,,,,,,,,0.9,0.5,0.7,2*3D
1755507849516,$GNGSA,A,3,10,12,21,23,26,31,33,,,,,,0.9,0.5,0.7,3*3E
1755507849516,$GNGSA,A,3,02,03,04,06,07,09,10,13,16,,,,0.9,0.5,0.7,4*36
1755507849516,$GNGSA,A,3,03,,,,,,,,,,,,0.9,0.5,0.7,5*3D
1755507849516,$GNVTG,,T,,M,0.0,N,0.0,K,A*3D
1755507849516,$GNDTM,P90,,0000.000006,N,00000.000002,W,1.000,W84*54
1755507849516,$GNRMC,090409.00,A,0612.871389,S,10651.586814,E,0.0,,180825,0.9,W,A,V*77
1755507849516,$GNGNS,090409.00,0612.871389,S,10651.586814,E,AAAAAN,28,0.5,13.4,32.0,,,V*00
1755507849516,$GNGGA,090409.00,0612.871389,S,10651.586814,E,1,12,0.5,13.4,M,32.0,M,,*56
1755507850490,$GPGSV,3,1,12,10,66,018,29,18,23,158,37,23,52,122,40,25,19,039,19,1*68
1755507850490,$GPGSV,3,2,12,29,13,106,32,31,37,298,23,02,01,295,,16,21,209,,1*6F
1755507850490,$GPGSV,3,3,12,26,59,212,,27,07,223,,28,32,336,,32,18,008,,1*62
1755507850490,$GLGSV,2,1,07,78,21,210,22,77,75,271,36,76,42,012,29,65,27,045,23,1*79
1755507850490,$GLGSV,2,2,07,88,25,220,27,87,09,160,15,72,16,102,38,1*42
1755507850490,$GAGSV,3,1,10,10,15,299,24,12,33,284,23,19,16,007,18,21,37,052,30,7*7F
1755507850490,$GAGSV,3,2,10,23,73,146,33,26,19,156,28,31,28,206,19,33,52,206,21,7*75
1755507850490,$GAGSV,3,3,10,04,02,314,,29,12,053,,7*7C
1755507850490,$GQGSV,1,1,02,02,39,077,35,03,44,147,25,1*6F
1755507850490,$GBGSV,5,1,19,16,37,345,25,13,59,357,22,10,43,182,17,09,46,323,29,1*7A
1755507850490,$GBGSV,5,2,19,07,46,164,24,06,40,340,24,04,28,085,37,03,80,026,32,1*73
1755507850490,$GBGSV,5,3,19,02,60,291,27,01,45,081,38,05,33,278,,08,64,014,,1*76
1755507850490,$GBGSV,5,4,19,20,10,341,,23,04,029,,27,28,167,,28,08,129,,1*73
1755507850490,$GBGSV,5,5,19,30,25,227,,32,40,033,,36,10,223,,1*4F
1755507850513,$GNGSA,A,3,10,18,23,25,28,29,31,,,,,,0.9,0.5,0.7,1*37
1755507850513,$GNGSA,A,3,72,76,77,88,,,,,,,,,0.9,0.5,0.7,2*3D
1755507850513,$GNGSA,A,3,10,12,21,23,26,31,33,,,,,,0.9,0.5,0.7,3*3E
