Raw,UTCTimeMillis,TimeNanos,LeapSecond,TimeUncertaintyNanos,FullBiasNanos,BiasNanos,BiasUncertaintyNanos,DriftNanosPerSecond,DriftUncertaintyNanosPerSecond,HardwareClockDiscontinuityCount,Svid,TimeOffsetNanos,State,ReceivedSvTimeNanos,ReceivedSvTimeUncertaintyNanos,Cn0DbHz,PseudorangeRateMetersPerSecond,PseudorangeRateUncertaintyMetersPerSecond,AccumulatedDeltaRangeState,AccumulatedDeltaRangeMeters,AccumulatedDeltaRangeUncertaintyMeters,CarrierFrequencyHz,CarrierCycles,CarrierPhase,CarrierPhaseUncertainty,MultipathIndicator,SnrInDb,ConstellationType,AgcDb,CarrierFrequencyHz
Fix,Provider,Latitude,Longitude,Altitude,Speed,Accuracy,(UTC)TimeInMs
Raw,1755507817588,40235629000000,18,,-1439502798878505859,0.7872905731201172,1008.5621615871787,-12.695312656205477,17.86869573332938,90,10,0.0,16399,119034438812885,21,30.5,-323.0805969238281,0.7365000247955322,16,0.0,0.0,1.57542003E9,,,,0,,1,0.0,1.57542003E9
Raw,1755507817588,40235629000000,18,,-1439502798878505859,0.7872905731201172,1008.5621615871787,-12.695312656205477,17.86869573332938,90,18,0.0,16399,119034429148803,21,30.1,510.0821838378906,0.75,16,0.0,0.0,1.57542003E9,,,,0,,1,0.0,1.57542003E9
Raw,1755507817588,40235629000000,18,,-1439502798878505859,0.7872905731201172,1008.5621615871787,-12.695312656205477,17.86869573332938,90,23,0.0,16399,119034437696745,7,41.2,279.1798400878906,0.5730000138282776,16,0.0,0.0,1.57542003E9,,,,0,,1,0.0,1.57542003E9
Raw,1755507817588,40235629000000,18,,-1439502798878505859,0.7872905731201172,1008.5621615871787,-12.695312656205477,17.86869573332938,90,28,0.0,16399,119034431666539,487,24.7,380.3304443359375,1.0670000314712524,16,0.0,0.0,1.57542003E9,,,,0,,1,0.0,1.57542003E9
Raw,1755507817589,40235629000000,18,,-1439502798878505859,0.7872905731201172,1008.5621615871787,-12.695312656205477,17.86869573332938,90,29,0.0,16399,119034425734605,21,30.1,72.66363525390625,0.7559999823570251,16,0.0,0.0,1.57542003E9,,,,0,,1,0.0,1.57542003E9
Raw,1755507817589,40235629000000,18,,-1439502798878505859,0.7872905731201172,1008.5621615871787,-12.695312656205477,17.86869573332938,90,194,0.0,16399,119034381077004,367,26.3,194.6323699951172,0.9620000123977661,16,0.0,0.0,1.57542003E9,,,,0,,4,0.0,1.57542003E9
Raw,1755507817589,40235629000000,18,,-1439502798878505859,0.7872905731201172,1008.5621615871787,-12.695312656205477,17.86869573332938,90,195,0.0,16399,119034392777966,16,33.4,72.32111358642578,0.6355000138282776,16,0.0,0.0,1.57542003E9,,,,0,,4,0.0,1.57542003E9
Raw,1755507817589,40235629000000,18,,-1439502798878505859,0.7872905731201172,1008.5621615871787,-12.695312656205477,17.86869573332938,90,13,0.0,49359,43416443164639,11,37.3,9.119945526123047,1.0390000343322754,16,0.0,0.0,1.60087501E9,,,,0,,3,0.0,1.60087501E9
Raw,1755507817589,40235629000000,18,,-1439502798878505859,0.7872905731201172,1008.5621615871787,-12.695312656205477,17.86869573332938,90,12,0.0,49359,43416438205822,318,27.8,627.754150390625,0.9235000014305115,16,0.0,0.0,1.60143744E9,,,,0,,3,0.0,1.60143744E9
Raw,1755507817589,40235629000000,18,,-1439502798878505859,0.7872905731201172,1008.5621615871787,-12.695312656205477,17.86869573332938,90,1,0.0,49359,43416434599955,487,24.6,-422.7984619140625,1.097499966621399,16,0.0,0.0,1.60256256E9,,,,0,,3,0.0,1.60256256E9
Raw,1755507817589,40235629000000,18,,-1439502798878505859,0.7872905731201172,1008.5621615871787,-12.695312656205477,17.86869573332938,90,8,0.0,49359,43416431044618,19,31.0,-15.154190063476562,0.7429999709129333,16,0.0,0.0,1.60537498E9,,,,0,,3,0.0,1.60537498E9
Raw,1755507817589,40235629000000,18,,-1439502798878505859,0.7872905731201172,1008.5621615871787,-12.695312656205477,17.86869573332938,90,21,0.0,23567,119034422628204,276,28.5,295.7353820800781,0.7935000658035278,16,0.0,0.0,1.57542003E9,,,,0,,6,0.0,1.57542003E9
Raw,1755507817589,40235629000000,18,,-1439502798878505859,0.7872905731201172,1008.5621615871787,-12.695312656205477,17.86869573332938,90,23,0.0,23567,119034429299102,17,32.9,-152.36814880371094,0.9079999923706055,16,0.0,0.0,1.57542003E9,,,,0,,6,0.0,1.57542003E9
Raw,1755507817589,40235629000000,18,,-1439502798878505859,0.7872905731201172,1008.5621615871787,-12.695312656205477,17.86869573332938,90,26,0.0,23567,119034418231523,16,33.4,437.96087646484375,0.8665000200271606,16,0.0,0.0,1.57542003E9,,,,0,,6,0.0,1.57542003E9
Fix,gps,-6.21452986,106.85978482,46.060546875,0.0,4.3352814,1755507816508
Raw,1755507818517,40236549000000,18,,-1439502798878505878,0.028350830078125,46.4591576019302,-16.15161409938544,13.636479756905825,90,10,0.0,16399,119035358813833,19,31.2,-322.2160949707031,0.03920000046491623,16,-0.0,1902.9177342976868,1.57542003E9,,,,0,,1,-0.12,1.57542003E9
Raw,1755507818517,40236549000000,18,,-1439502798878505878,0.028350830078125,46.4591576019302,-16.15161409938544,13.636479756905825,90,18,0.0,16399,119035349147255,21,30.3,510.7613525390625,0.04410000145435333,16,-0.0,1902.9177342976868,1.57542003E9,,,,0,,1,-0.12,1.57542003E9
Raw,1755507818517,40236549000000,18,,-1439502798878505878,0.028350830078125,46.4591576019302,-16.15161409938544,13.636479756905825,90,23,0.0,16399,119035357695882,6,41.9,280.1872863769531,0.021800000220537186,16,-0.0,1902.9177342976868,1.57542003E9,,,,0,,1,-0.12,1.57542003E9
Raw,1755507818517,40236549000000,18,,-1439502798878505878,0.028350830078125,46.4591576019302,-16.15161409938544,13.636479756905825,90,28,0.0,16399,119035351665363,489,24.6,380.168701171875,1.5980000495910645,16,0.0,0.0,1.57542003E9,,,,0,,1,-0.12,1.57542003E9
Raw,1755507818518,40236549000000,18,,-1439502798878505878,0.028350830078125,46.4591576019302,-16.15161409938544,13.636479756905825,90,29,0.0,16399,119035345734400,19,30.9,73.59866333007812,0.031700000166893005,16,-0.0,1902.9177342976868,1.57542003E9,,,,0,,1,-0.12,1.57542003E9
Raw,1755507818518,40236549000000,18,,-1439502798878505878,0.028350830078125,46.4591576019302,-16.15161409938544,13.636479756905825,90,31,0.0,16399,119035354146338,749,21.7,164.84188842773438,1.8324999809265137,16,0.0,0.0,1.57542003E9,,,,0,,1,-0.12,1.57542003E9
Raw,1755507818518,40236549000000,18,,-1439502798878505878,0.028350830078125,46.4591576019302,-16.15161409938544,13.636479756905825,90,194,0.0,16399,119035301076455,24,29.1,195.45062255859375,0.9470000267028809,16,0.0,0.0,1.57542003E9,,,,0,,4,-0.12,1.57542003E9
Raw,1755507818518,40236549000000,18,,-1439502798878505878,0.028350830078125,46.4591576019302,-16.15161409938544,13.636479756905825,90,195,0.0,16399,119035312777686,21,30.3,73.55303955078125,0.048600003123283386,16,-0.0,1902.9177342976868,1.57542003E9,,,,0,,4,-0.12,1.57542003E9
Raw,1755507818518,40236549000000,18,,-1439502798878505878,0.028350830078125,46.4591576019302,-16.15161409938544,13.636479756905825,90,14,0.0,49359,43417352790105,748,21.0,-671.017333984375,1.9544999599456787,16,0.0,0.0,1.59806246E9,,,,0,,3,0.34,1.59806246E9
Raw,1755507818518,40236549000000,18,,-1439502798878505878,0.028350830078125,46.4591576019302,-16.15161409938544,13.636479756905825,90,13,0.0,49359,43417363164626,12,36.5,9.756423950195312,0.24650000035762787,16,-0.0,1872.6600783192619,1.60087501E9,,,,0,,3,0.34,1.60087501E9
Raw,1755507818518,40236549000000,18,,-1439502798878505878,0.028350830078125,46.4591576019302,-16.15161409938544,13.636479756905825,90,12,0.0,49359,43417358204017,46,24.2,629.6261596679688,1.2415000200271606,16,0.0,0.0,1.60143744E9,,,,0,,3,0.34,1.60143744E9
Raw,1755507818518,40236549000000,18,,-1439502798878505878,0.028350830078125,46.4591576019302,-16.15161409938544,13.636479756905825,90,1,0.0,49359,43417354601263,649,22.9,-421.9285583496094,1.877500057220459,16,0.0,0.0,1.60256256E9,,,,0,,3,0.34,1.60256256E9
Raw,1755507818518,40236549000000,18,,-1439502798878505878,0.028350830078125,46.4591576019302,-16.15161409938544,13.636479756905825,90,24,0.0,49359,43417353778685,563,23.8,205.70555114746094,1.7960000038146973,16,0.0,0.0,1.60312499E9,,,,0,,3,0.34,1.60312499E9
Raw,1755507818519,40236549000000,18,,-1439502798878505878,0.028350830078125,46.4591576019302,-16.15161409938544,13.636479756905825,90,8,0.0,49359,43417351044654,27,28.4,-14.080418586730957,0.953000009059906,16,0.0,0.0,1.60537498E9,,,,0,,3,0.34,1.60537498E9
Raw,1755507818519,40236549000000,18,,-1439502798878505878,0.028350830078125,46.4591576019302,-16.15161409938544,13.636479756905825,90,9,0.0,16399,119021300960936,487,24.2,256.76641845703125,0.981499969959259,16,0.0,0.0,1.56109798E9,,,,0,,5,-1.44,1.56109798E9
Raw,1755507818519,40236549000000,18,,-1439502798878505878,0.028350830078125,46.4591576019302,-16.15161409938544,13.636479756905825,90,7,0.0,16399,119021303315443,647,22.2,-104.61351013183594,1.1360000371932983,16,0.0,0.0,1.56109798E9,,,,0,,5,-1.44,1.56109798E9
Raw,1755507818519,40236549000000,18,,-1439502798878505878,0.028350830078125,46.4591576019302,-16.15161409938544,13.636479756905825,90,4,0.0,16399,119021299182699,277,28.3,1.4114902019500732,3.092100143432617,16,0.0,0.0,1.56109798E9,,,,0,,5,-1.44,1.56109798E9
Raw,1755507818519,40236549000000,18,,-1439502798878505878,0.028350830078125,46.4591576019302,-16.15161409938544,13.636479756905825,90,10,0.0,23567,119035335915865,490,24.3,-264.403564453125,1.6489999294281006,16,0.0,0.0,1.57542003E9,,,,0,,6,-0.11,1.57542003E9
Raw,1755507818519,40236549000000,18,,-1439502798878505878,0.028350830078125,46.4591576019302,-16.15161409938544,13.636479756905825,90,21,0.0,23567,119035342627305,27,29.1,297.3528747558594,0.7114999890327454,16,0.0,0.0,1.57542003E9,,,,0,,6,-0.11,1.57542003E9
Raw,1755507818521,40236549000000,18,,-1439502798878505878,0.028350830078125,46.4591576019302,-16.15161409938544,13.636479756905825,90,23,0.0,23567,119035349299577,19,31.8,-151.91368103027344,0.04370000213384628,16,-0.0,1902.9177342976868,1.57542003E9,,,,0,,6,-0.11,1.57542003E9
Raw,1755507818521,40236549000000,18,,-1439502798878505878,0.028350830078125,46.4591576019302,-16.15161409938544,13.636479756905825,90,26,0.0,23567,119035338230173,19,32.1,438.7230224609375,0.0421999990940094,16,-0.0,1902.9177342976868,1.57542003E9,,,,0,,6,-0.11,1.57542003E9
Raw,1755507818521,40236549000000,18,,-1439502798878505878,0.028350830078125,46.4591576019302,-16.15161409938544,13.636479756905825,90,33,0.0,23567,119035346516585,749,21.4,269.7888488769531,1.8834999799728394,16,0.0,0.0,1.57542003E9,,,,0,,6,-0.11,1.57542003E9
Fix,gps,-6.21452927,106.85978468,46.00592041015625,0.0,4.0837765,1755507818000
Raw,1755507819537,40237549000000,18,,-1439502798878505891,0.1835498809814453,38.41287616523914,-13.64548549376711,10.203594502011248,90,10,0.0,16399,119036358814933,21,30.2,-323.10064697265625,0.08760000765323639,16,-0.0,1902.9177342976868,1.57542003E9,,,,0,,1,-0.36,1.57542003E9
Raw,1755507819538,40237549000000,18,,-1439502798878505891,0.1835498809814453,38.41287616523914,-13.64548549376711,10.203594502011248,90,18,0.0,16399,119036349145537,16,32.7,509.7585144042969,0.04439999908208847,16,-0.0,1902.9177342976868,1.57542003E9,,,,0,,1,-0.36,1.57542003E9
Raw,1755507819538,40237549000000,18,,-1439502798878505891,0.1835498809814453,38.41287616523914,-13.64548549376711,10.203594502011248,90,23,0.0,16399,119036357694952,7,41.2,279.31182861328125,0.04620000347495079,16,-0.0,1902.9177342976868,1.57542003E9,,,,0,,1,-0.36,1.57542003E9
Raw,1755507819538,40237549000000,18,,-1439502798878505891,0.1835498809814453,38.41287616523914,-13.64548549376711,10.203594502011248,90,29,0.0,16399,119036345734177,19,31.3,72.57970428466797,0.04969999939203262,16,-0.0,1902.9177342976868,1.57542003E9,,,,0,,1,-0.36,1.57542003E9
Raw,1755507819538,40237549000000,18,,-1439502798878505891,0.1835498809814453,38.41287616523914,-13.64548549376711,10.203594502011248,90,194,0.0,16399,119036301075711,27,28.5,194.09002685546875,0.6180000305175781,16,0.0,0.0,1.57542003E9,,,,0,,4,-0.36,1.57542003E9
Raw,1755507819538,40237549000000,18,,-1439502798878505891,0.1835498809814453,38.41287616523914,-13.64548549376711,10.203594502011248,90,195,0.0,16399,119036312777474,16,33.0,72.582275390625,0.048900000751018524,16,-0.0,1902.9177342976868,1.57542003E9,,,,0,,4,-0.36,1.57542003E9
Raw,1755507819538,40237549000000,18,,-1439502798878505891,0.1835498809814453,38.41287616523914,-13.64548549376711,10.203594502011248,90,13,0.0,49359,43418363164602,13,35.2,8.847929954528809,0.22940000891685486,16,-0.0,1872.6600783192619,1.60087501E9,,,,0,,3,-0.75,1.60087501E9
Raw,1755507819538,40237549000000,18,,-1439502798878505891,0.1835498809814453,38.41287616523914,-13.64548549376711,10.203594502011248,90,12,0.0,49359,43418358201831,40,25.4,628.0630493164062,1.0134999752044678,16,0.0,0.0,1.60143744E9,,,,0,,3,-0.75,1.60143744E9
Raw,1755507819538,40237549000000,18,,-1439502798878505891,0.1835498809814453,38.41287616523914,-13.64548549376711,10.203594502011248,90,8,0.0,49359,43418351044697,27,28.9,-14.958109855651855,0.8330000042915344,16,0.0,0.0,1.60537498E9,,,,0,,3,-0.75,1.60537498E9
Raw,1755507819538,40237549000000,18,,-1439502798878505891,0.1835498809814453,38.41287616523914,-13.64548549376711,10.203594502011248,90,21,0.0,23567,119036342626300,27,29.1,295.70684814453125,0.6035000085830688,16,0.0,0.0,1.57542003E9,,,,0,,6,-0.36,1.57542003E9
Raw,1755507819538,40237549000000,18,,-1439502798878505891,0.1835498809814453,38.41287616523914,-13.64548549376711,10.203594502011248,90,23,0.0,23567,119036349300089,21,30.9,-152.8148651123047,0.0861000046133995,16,-0.0,1902.9177342976868,1.57542003E9,,,,0,,6,-0.36,1.57542003E9
Raw,1755507819538,40237549000000,18,,-1439502798878505891,0.1835498809814453,38.41287616523914,-13.64548549376711,10.203594502011248,90,26,0.0,23567,119036338228706,17,32.7,437.68121337890625,0.059300001710653305,16,-0.0,1902.9177342976868,1.57542003E9,,,,0,,6,-0.36,1.57542003E9
Fix,gps,-6.21452915,106.85978464,45.9979248046875,0.0,3.7900925,1755507819000
Raw,1755507820529,40238549000000,18,,-1439502798878505912,0.6199474334716797,32.33088500564918,-17.00873852485706,11.45058844192195,90,10,0.0,16399,119037358816061,24,28.7,-324.9118347167969,0.11949999630451202,16,-0.0,1902.9177342976868,1.57542003E9,,,,0,,1,-0.41,1.57542003E9
Raw,1755507820530,40238549000000,18,,-1439502798878505912,0.6199474334716797,32.33088500564918,-17.00873852485706,11.45058844192195,90,18,0.0,16399,119037349143832,12,36.2,507.6781311035156,0.03750000149011612,16,-0.0,1902.9177342976868,1.57542003E9,,,,0,,1,-0.41,1.57542003E9
Raw,1755507820530,40238549000000,18,,-1439502798878505912,0.6199474334716797,32.33088500564918,-17.00873852485706,11.45058844192195,90,23,0.0,16399,119037357694026,8,40.1,277.3603515625,0.04670000448822975,16,-0.0,1902.9177342976868,1.57542003E9,,,,0,,1,-0.41,1.57542003E9
Raw,1755507820530,40238549000000,18,,-1439502798878505912,0.6199474334716797,32.33088500564918,-17.00873852485706,11.45058844192195,90,28,0.0,16399,119037351662922,35,25.8,377.428466796875,0.8420000076293945,16,0.0,0.0,1.57542003E9,,,,0,,1,-0.41,1.57542003E9
Raw,1755507820530,40238549000000,18,,-1439502798878505912,0.6199474334716797,32.33088500564918,-17.00873852485706,11.45058844192195,90,29,0.0,16399,119037345733965,19,30.6,70.53279113769531,0.04969999939203262,16,-0.0,1902.9177342976868,1.57542003E9,,,,0,,1,-0.41,1.57542003E9
Raw,1755507820530,40238549000000,18,,-1439502798878505912,0.6199474334716797,32.33088500564918,-17.00873852485706,11.45058844192195,90,194,0.0,16399,119037301075112,17,32.4,192.20260620117188,0.033799998462200165,16,-0.0,1902.9177342976868,1.57542003E9,,,,0,,4,-0.41,1.57542003E9
Raw,1755507820530,40238549000000,18,,-1439502798878505912,0.6199474334716797,32.33088500564918,-17.00873852485706,11.45058844192195,90,195,0.0,16399,119037312777235,17,32.3,70.51933288574219,0.050300002098083496,16,-0.0,1902.9177342976868,1.57542003E9,,,,0,,4,-0.41,1.57542003E9
Raw,1755507820530,40238549000000,18,,-1439502798878505912,0.6199474334716797,32.33088500564918,-17.00873852485706,11.45058844192195,90,13,0.0,49359,43419363164603,13,35.3,7.014307022094727,0.22940000891685486,16,-0.0,1872.6600783192619,1.60087501E9,,,,0,,3,-0.28,1.60087501E9
Raw,1755507820530,40238549000000,18,,-1439502798878505912,0.6199474334716797,32.33088500564918,-17.00873852485706,11.45058844192195,90,12,0.0,49359,43419358199727,21,30.1,625.8468627929688,0.28760001063346863,16,-0.0,1872.002391714177,1.60143744E9,,,,0,,3,-0.28,1.60143744E9
Raw,1755507820530,40238549000000,18,,-1439502798878505912,0.6199474334716797,32.33088500564918,-17.00873852485706,11.45058844192195,90,1,0.0,49359,43419354604042,46,24.9,-424.9965515136719,1.097499966621399,16,0.0,0.0,1.60256256E9,,,,0,,3,-0.28,1.60256256E9
Raw,1755507820530,40238549000000,18,,-1439502798878505912,0.6199474334716797,32.33088500564918,-17.00873852485706,11.45058844192195,90,24,0.0,49359,43419353777250,40,25.3,203.5736846923828,1.0390000343322754,16,0.0,0.0,1.60312499E9,,,,0,,3,-0.28,1.60312499E9
Raw,1755507820530,40238549000000,18,,-1439502798878505912,0.6199474334716797,32.33088500564918,-17.00873852485706,11.45058844192195,90,8,0.0,49359,43419351044782,19,31.9,-16.615381240844727,0.25870001316070557,16,-0.0,1867.4108932046968,1.60537498E9,,,,0,,3,-0.28,1.60537498E9
Raw,1755507820530,40238549000000,18,,-1439502798878505912,0.6199474334716797,32.33088500564918,-17.00873852485706,11.45058844192195,90,13,0.0,16399,119023305833165,46,24.7,-217.8112030029297,0.9110000133514404,16,0.0,0.0,1.56109798E9,,,,0,,5,4.85,1.56109798E9
Raw,1755507820530,40238549000000,18,,-1439502798878505912,0.6199474334716797,32.33088500564918,-17.00873852485706,11.45058844192195,90,9,0.0,16399,119023300959212,27,28.8,254.7019805908203,0.6885000467300415,16,0.0,0.0,1.56109798E9,,,,0,,5,4.85,1.56109798E9
Raw,1755507820530,40238549000000,18,,-1439502798878505912,0.6199474334716797,32.33088500564918,-17.00873852485706,11.45058844192195,90,7,0.0,16399,119023303316123,35,26.3,-107.12923431396484,0.793999969959259,16,0.0,0.0,1.56109798E9,,,,0,,5,4.85,1.56109798E9
Raw,1755507820530,40238549000000,18,,-1439502798878505912,0.6199474334716797,32.33088500564918,-17.00873852485706,11.45058844192195,90,4,0.0,16399,119023299182789,13,35.7,-10.005257606506348,1.4056999683380127,16,0.0,0.0,1.56109798E9,,,,0,,5,4.85,1.56109798E9
Raw,1755507820531,40238549000000,18,,-1439502798878505912,0.6199474334716797,32.33088500564918,-17.00873852485706,11.45058844192195,90,1,0.0,16399,119023302658422,11,37.5,-8.814613342285156,1.2992000579833984,16,0.0,0.0,1.56109798E9,,,,0,,5,4.85,1.56109798E9
Raw,1755507820531,40238549000000,18,,-1439502798878505912,0.6199474334716797,32.33088500564918,-17.00873852485706,11.45058844192195,90,10,0.0,23567,119037335917653,61,22.5,-266.0971374511719,1.0460000038146973,16,0.0,0.0,1.57542003E9,,,,0,,6,-0.43,1.57542003E9
Raw,1755507820531,40238549000000,18,,-1439502798878505912,0.6199474334716797,32.33088500564918,-17.00873852485706,11.45058844192195,90,21,0.0,23567,119037342625328,24,29.9,294.23486328125,0.11949999630451202,16,-0.0,1902.9177342976868,1.57542003E9,,,,0,,6,-0.43,1.57542003E9
Raw,1755507820531,40238549000000,18,,-1439502798878505912,0.6199474334716797,32.33088500564918,-17.00873852485706,11.45058844192195,90,23,0.0,23567,119037349300622,31,27.5,-154.77536010742188,0.6919999718666077,16,0.0,0.0,1.57542003E9,,,,0,,6,-0.43,1.57542003E9
Raw,1755507820531,40238549000000,18,,-1439502798878505912,0.6199474334716797,32.33088500564918,-17.00873852485706,11.45058844192195,90,26,0.0,23567,119037338227232,27,28.8,435.4490051269531,0.643500030040741,16,0.0,0.0,1.57542003E9,,,,0,,6,-0.43,1.57542003E9
Raw,1755507820531,40238549000000,18,,-1439502798878505912,0.6199474334716797,32.33088500564918,-17.00873852485706,11.45058844192195,90,33,0.0,23567,119037346514786,46,24.3,267.9810485839844,0.8914999961853027,16,0.0,0.0,1.57542003E9,,,,0,,6,-0.43,1.57542003E9
Fix,gps,-6.21452708,106.85978458,45.69140625,0.0,3.7900925,1755507820000
Raw,1755507821563,40239549000000,18,,-1439502798878505946,0.16846275329589844,32.87521394668147,-23.512862373415654,12.339978917900112,90,10,0.0,16399,119038358817091,17,32.0,-325.17132568359375,0.059300001710653305,16,-0.0,1902.9177342976868,1.57542003E9,,,,0,,1,-0.02,1.57542003E9
Raw,1755507821564,40239549000000,18,,-1439502798878505946,0.16846275329589844,32.87521394668147,-23.512862373415654,12.339978917900112,90,18,0.0,16399,119038349142146,10,38.1,507.4759216308594,0.03590000048279762,16,-0.0,1902.9177342976868,1.57542003E9,,,,0,,1,-0.02,1.57542003E9
Raw,1755507821564,40239549000000,18,,-1439502798878505946,0.16846275329589844,32.87521394668147,-23.512862373415654,12.339978917900112,90,23,0.0,16399,119038357693115,8,40.4,277.2869873046875,0.04670000448822975,16,-0.0,1902.9177342976868,1.57542003E9,,,,0,,1,-0.02,1.57542003E9
Raw,1755507821564,40239549000000,18,,-1439502798878505946,0.16846275329589844,32.87521394668147,-23.512862373415654,12.339978917900112,90,25,0.0,16399,119038350105127,80,20.2,585.4099731445312,1.8265000581741333,16,0.0,0.0,1.57542003E9,,,,0,,1,-0.02,1.57542003E9
Raw,1755507821564,40239549000000,18,,-1439502798878505946,0.16846275329589844,32.87521394668147,-23.512862373415654,12.339978917900112,90,28,0.0,16399,119038351661595,35,26.2,377.6473083496094,0.7429999709129333,16,0.0,0.0,1.57542003E9,,,,0,,1,-0.02,1.57542003E9
Raw,1755507821564,40239549000000,18,,-1439502798878505946,0.16846275329589844,32.87521394668147,-23.512862373415654,12.339978917900112,90,29,0.0,16399,119038345733680,31,27.0,69.92340850830078,0.6739999651908875,16,0.0,0.0,1.57542003E9,,,,0,,1,-0.02,1.57542003E9
Raw,1755507821565,40239549000000,18,,-1439502798878505946,0.16846275329589844,32.87521394668147,-23.512862373415654,12.339978917900112,90,194,0.0,16399,119038301074459,16,32.9,192.08522033691406,0.03240000084042549,16,-0.0,1902.9177342976868,1.57542003E9,,,,0,,4,-0.02,1.57542003E9
Raw,1755507821565,40239549000000,18,,-1439502798878505946,0.16846275329589844,32.87521394668147,-23.512862373415654,12.339978917900112,90,195,0.0,16399,119038312777021,17,32.3,70.36064147949219,0.050300002098083496,16,-0.0,1902.9177342976868,1.57542003E9,,,,0,,4,-0.02,1.57542003E9
Raw,1755507821565,40239549000000,18,,-1439502798878505946,0.16846275329589844,32.87521394668147,-23.512862373415654,12.339978917900112,90,13,0.0,49359,43420363164535,13,35.1,6.988964080810547,0.22940000891685486,16,-0.0,1872.6600783192619,1.60087501E9,,,,0,,3,-0.02,1.60087501E9
Raw,1755507821565,40239549000000,18,,-1439502798878505946,0.16846275329589844,32.87521394668147,-23.512862373415654,12.339978917900112,90,12,0.0,49359,43420358197612,17,32.0,625.7413940429688,0.25929999351501465,16,-0.0,1872.002391714177,1.60143744E9,,,,0,,3,-0.02,1.60143744E9
Raw,1755507821565,40239549000000,18,,-1439502798878505946,0.16846275329589844,32.87521394668147,-23.512862373415654,12.339978917900112,90,1,0.0,49359,43420354605309,31,27.7,-424.3511657714844,0.887499988079071,16,0.0,0.0,1.60256256E9,,,,0,,3,-0.02,1.60256256E9
Raw,1755507821565,40239549000000,18,,-1439502798878505946,0.16846275329589844,32.87521394668147,-23.512862373415654,12.339978917900112,90,24,0.0,49359,43420353776642,35,26.4,203.5736846923828,0.9459999799728394,16,0.0,0.0,1.60312499E9,,,,0,,3,-0.02,1.60312499E9
Raw,1755507821565,40239549000000,18,,-1439502798878505946,0.16846275329589844,32.87521394668147,-23.512862373415654,12.339978917900112,90,8,0.0,49359,43420351044845,27,28.9,-16.91891098022461,0.8330000042915344,16,0.0,0.0,1.60537498E9,,,,0,,3,-0.02,1.60537498E9
Raw,1755507821565,40239549000000,18,,-1439502798878505946,0.16846275329589844,32.87521394668147,-23.512862373415654,12.339978917900112,90,13,0.0,16399,119024305833979,53,24.0,-218.37771606445312,0.8539999723434448,16,0.0,0.0,1.56109798E9,,,,0,,5,5.46,1.56109798E9
Raw,1755507821566,40239549000000,18,,-1439502798878505946,0.16846275329589844,32.87521394668147,-23.512862373415654,12.339978917900112,90,9,0.0,16399,119024300958398,24,30.0,254.50213623046875,0.0925000011920929,16,-0.0,1920.3757538518662,1.56109798E9,,,,0,,5,5.46,1.56109798E9
Raw,1755507821566,40239549000000,18,,-1439502798878505946,0.16846275329589844,32.87521394668147,-23.512862373415654,12.339978917900112,90,7,0.0,16399,119024303316439,31,27.5,-107.7629623413086,0.6710000038146973,16,0.0,0.0,1.56109798E9,,,,0,,5,5.46,1.56109798E9
Raw,1755507821566,40239549000000,18,,-1439502798878505946,0.16846275329589844,32.87521394668147,-23.512862373415654,12.339978917900112,90,4,0.0,16399,119024299182816,13,35.7,-10.25490951538086,1.3906999826431274,16,0.0,0.0,1.56109798E9,,,,0,,5,5.46,1.56109798E9
Raw,1755507821566,40239549000000,18,,-1439502798878505946,0.16846275329589844,32.87521394668147,-23.512862373415654,12.339978917900112,90,1,0.0,16399,119024302658465,11,37.7,-10.283592224121094,0.3005000054836273,16,-0.0,1920.3757538518662,1.56109798E9,,,,0,,5,5.46,1.56109798E9
Raw,1755507821566,40239549000000,18,,-1439502798878505946,0.16846275329589844,32.87521394668147,-23.512862373415654,12.339978917900112,90,10,0.0,23567,119038335918535,61,22.6,-265.47869873046875,1.0190000534057617,16,0.0,0.0,1.57542003E9,,,,0,,6,-0.04,1.57542003E9
Raw,1755507821566,40239549000000,18,,-1439502798878505946,0.16846275329589844,32.87521394668147,-23.512862373415654,12.339978917900112,90,12,0.0,23567,119038342297602,70,21.5,-125.0514907836914,1.7484999895095825,16,0.0,0.0,1.57542003E9,,,,0,,6,-0.04,1.57542003E9
Raw,1755507821566,40239549000000,18,,-1439502798878505946,0.16846275329589844,32.87521394668147,-23.512862373415654,12.339978917900112,90,21,0.0,23567,119038342624343,24,29.8,294.09033203125,0.11949999630451202,16,-0.0,1902.9177342976868,1.57542003E9,,,,0,,6,-0.04,1.57542003E9
Raw,1755507821566,40239549000000,18,,-1439502798878505946,0.16846275329589844,32.87521394668147,-23.512862373415654,12.339978917900112,90,23,0.0,23567,119038349301120,21,30.4,-154.9698028564453,0.0861000046133995,16,-0.0,1902.9177342976868,1.57542003E9,,,,0,,6,-0.04,1.57542003E9
Raw,1755507821567,40239549000000,18,,-1439502798878505946,0.16846275329589844,32.87521394668147,-23.512862373415654,12.339978917900112,90,26,0.0,23567,119038338225841,27,28.8,435.08746337890625,0.643500030040741,16,0.0,0.0,1.57542003E9,,,,0,,6,-0.04,1.57542003E9
Raw,1755507821567,40239549000000,18,,-1439502798878505946,0.16846275329589844,32.87521394668147,-23.512862373415654,12.339978917900112,90,33,0.0,23567,119038346513948,46,24.8,268.5709533691406,0.8734999895095825,16,0.0,0.0,1.57542003E9,,,,0,,6,-0.04,1.57542003E9
Fix,gps,-6.21452679,106.85978367,45.517822265625,0.0,3.7900925,1755507821000
Raw,1755507822558,40240549000000,18,,-1439502798878505972,0.7768840789794922,32.69250737503171,-24.438581183889006,11.345226728540583,90,10,0.0,16399,119039358818179,31,26.8,-322.0625305175781,0.7534999847412109,16,0.0,0.0,1.57542003E9,,,,0,,1,0.12,1.57542003E9
Raw,1755507822559,40240549000000,18,,-1439502798878505972,0.7768840789794922,32.69250737503171,-24.438581183889006,11.345226728540583,90,18,0.0,16399,119039349140456,10,38.3,510.1005859375,0.03590000048279762,16,-0.0,1902.9177342976868,1.57542003E9,,,,0,,1,0.12,1.57542003E9
Raw,1755507822559,40240549000000,18,,-1439502798878505972,0.7768840789794922,32.69250737503171,-24.438581183889006,11.345226728540583,90,23,0.0,16399,119039357692181,7,40.7,280.0114440917969,0.04620000347495079,16,-0.0,1902.9177342976868,1.57542003E9,,,,0,,1,0.12,1.57542003E9
Raw,1755507822559,40240549000000,18,,-1439502798878505972,0.7768840789794922,32.69250737503171,-24.438581183889006,11.345226728540583,90,25,0.0,16399,119039350103357,61,22.2,588.0074462890625,1.0115000009536743,16,0.0,0.0,1.57542003E9,,,,0,,1,0.12,1.57542003E9
Raw,1755507822560,40240549000000,18,,-1439502798878505972,0.7768840789794922,32.69250737503171,-24.438581183889006,11.345226728540583,90,28,0.0,16399,119039351660225,53,22.7,381.95745849609375,1.0130000114440918,16,0.0,0.0,1.57542003E9,,,,0,,1,0.12,1.57542003E9
Raw,1755507822560,40240549000000,18,,-1439502798878505972,0.7768840789794922,32.69250737503171,-24.438581183889006,11.345226728540583,90,29,0.0,16399,119039345733428,27,28.3,73.28209686279297,0.6240000128746033,16,0.0,0.0,1.57542003E9,,,,0,,1,0.12,1.57542003E9
Raw,1755507822561,40240549000000,18,,-1439502798878505972,0.7768840789794922,32.69250737503171,-24.438581183889006,11.345226728540583,90,31,0.0,16399,119039354144290,92,19.1,163.12924194335938,2.6725001335144043,16,0.0,0.0,1.57542003E9,,,,0,,1,0.12,1.57542003E9
Raw,1755507822561,40240549000000,18,,-1439502798878505972,0.7768840789794922,32.69250737503171,-24.438581183889006,11.345226728540583,90,194,0.0,16399,119039301073778,19,31.2,194.72227478027344,0.04370000213384628,16,-0.0,1902.9177342976868,1.57542003E9,,,,0,,4,0.12,1.57542003E9
Raw,1755507822561,40240549000000,18,,-1439502798878505972,0.7768840789794922,32.69250737503171,-24.438581183889006,11.345226728540583,90,195,0.0,16399,119039312776787,24,29.5,72.9680404663086,0.11050000041723251,16,-0.0,1902.9177342976868,1.57542003E9,,,,0,,4,0.12,1.57542003E9
Raw,1755507822561,40240549000000,18,,-1439502798878505972,0.7768840789794922,32.69250737503171,-24.438581183889006,11.345226728540583,90,13,0.0,49359,43421363164546,12,36.0,9.80911636352539,0.22850000858306885,16,-0.0,1872.6600783192619,1.60087501E9,,,,0,,3,0.09,1.60087501E9
Raw,1755507822561,40240549000000,18,,-1439502798878505972,0.7768840789794922,32.69250737503171,-24.438581183889006,11.345226728540583,90,12,0.0,49359,43421358195467,24,29.8,628.4358520507812,0.31949999928474426,16,-0.0,1872.002391714177,1.60143744E9,,,,0,,3,0.09,1.60143744E9
Raw,1755507822562,40240549000000,18,,-1439502798878505972,0.7768840789794922,32.69250737503171,-24.438581183889006,11.345226728540583,90,1,0.0,49359,43421354606841,24,29.3,-421.8786315917969,0.31349998712539673,16,-0.0,1870.6881045945743,1.60256256E9,,,,0,,3,0.09,1.60256256E9
Raw,1755507822562,40240549000000,18,,-1439502798878505972,0.7768840789794922,32.69250737503171,-24.438581183889006,11.345226728540583,90,24,0.0,49359,43421353776048,40,25.2,206.34136962890625,1.00600004196167,16,0.0,0.0,1.60312499E9,,,,0,,3,0.09,1.60312499E9
Raw,1755507822562,40240549000000,18,,-1439502798878505972,0.7768840789794922,32.69250737503171,-24.438581183889006,11.345226728540583,90,23,0.0,49359,43421348520036,92,19.6,356.082275390625,2.8635001182556152,16,0.0,0.0,1.60368755E9,,,,0,,3,0.09,1.60368755E9
Raw,1755507822562,40240549000000,18,,-1439502798878505972,0.7768840789794922,32.69250737503171,-24.438581183889006,11.345226728540583,90,8,0.0,49359,43421351044842,13,35.1,-14.060742378234863,0.24140000343322754,16,-0.0,1867.4108932046968,1.60537498E9,,,,0,,3,0.09,1.60537498E9
Raw,1755507822562,40240549000000,18,,-1439502798878505972,0.7768840789794922,32.69250737503171,-24.438581183889006,11.345226728540583,90,16,0.0,16399,119025299034363,70,22.0,245.61849975585938,1.7450001239776611,16,0.0,0.0,1.56109798E9,,,,0,,5,5.64,1.56109798E9
Raw,1755507822562,40240549000000,18,,-1439502798878505972,0.7768840789794922,32.69250737503171,-24.438581183889006,11.345226728540583,90,13,0.0,16399,119025305834661,46,24.5,-215.1514434814453,0.8539999723434448,16,0.0,0.0,1.56109798E9,,,,0,,5,5.64,1.56109798E9
Raw,1755507822563,40240549000000,18,,-1439502798878505972,0.7768840789794922,32.69250737503171,-24.438581183889006,11.345226728540583,90,9,0.0,16399,119025300957535,24,29.4,257.1574401855469,0.0925000011920929,16,-0.0,1920.3757538518662,1.56109798E9,,,,0,,5,5.64,1.56109798E9
Raw,1755507822563,40240549000000,18,,-1439502798878505972,0.7768840789794922,32.69250737503171,-24.438581183889006,11.345226728540583,90,7,0.0,16399,119025303316822,35,26.5,-104.36386108398438,0.7310000061988831,16,0.0,0.0,1.56109798E9,,,,0,,5,5.64,1.56109798E9
Raw,1755507822563,40240549000000,18,,-1439502798878505972,0.7768840789794922,32.69250737503171,-24.438581183889006,11.345226728540583,90,6,0.0,16399,119025301773906,92,20.1,237.946533203125,2.563000202178955,16,0.0,0.0,1.56109798E9,,,,0,,5,5.64,1.56109798E9
Raw,1755507822563,40240549000000,18,,-1439502798878505972,0.7768840789794922,32.69250737503171,-24.438581183889006,11.345226728540583,90,4,0.0,16399,119025299182853,12,37.1,-6.282719135284424,0.5472000241279602,16,-0.0,1920.3757538518662,1.56109798E9,,,,0,,5,5.64,1.56109798E9
Raw,1755507822563,40240549000000,18,,-1439502798878505972,0.7768840789794922,32.69250737503171,-24.438581183889006,11.345226728540583,90,3,0.0,16399,119025308664859,21,30.8,-5.934020042419434,3.650700092315674,16,0.0,0.0,1.56109798E9,,,,0,,5,5.64,1.56109798E9
Raw,1755507822563,40240549000000,18,,-1439502798878505972,0.7768840789794922,32.69250737503171,-24.438581183889006,11.345226728540583,90,2,0.0,16399,119025305464609,27,28.8,-6.183671951293945,4.352100372314453,16,0.0,0.0,1.56109798E9,,,,0,,5,5.64,1.56109798E9
Raw,1755507822564,40240549000000,18,,-1439502798878505972,0.7768840789794922,32.69250737503171,-24.438581183889006,11.345226728540583,90,1,0.0,16399,119025302658498,9,39.3,-7.674416542053223,0.11949999630451202,16,-0.0,1920.3757538518662,1.56109798E9,,,,0,,5,5.64,1.56109798E9
Raw,1755507822564,40240549000000,18,,-1439502798878505972,0.7768840789794922,32.69250737503171,-24.438581183889006,11.345226728540583,90,10,0.0,23567,119039335919382,46,24.9,-263.4806213378906,0.8689999580383301,16,0.0,0.0,1.57542003E9,,,,0,,6,0.11,1.57542003E9
Raw,1755507822564,40240549000000,18,,-1439502798878505972,0.7768840789794922,32.69250737503171,-24.438581183889006,11.345226728540583,90,21,0.0,23567,119039342623333,31,28.1,297.1150207519531,0.643500030040741,16,0.0,0.0,1.57542003E9,,,,0,,6,0.11,1.57542003E9
Raw,1755507822564,40240549000000,18,,-1439502798878505972,0.7768840789794922,32.69250737503171,-24.438581183889006,11.345226728540583,90,23,0.0,23567,119039349301631,19,31.3,-152.2563018798828,0.06769999861717224,16,-0.0,1902.9177342976868,1.57542003E9,,,,0,,6,0.11,1.57542003E9
Raw,1755507822564,40240549000000,18,,-1439502798878505972,0.7768840789794922,32.69250737503171,-24.438581183889006,11.345226728540583,90,26,0.0,23567,119039338224356,19,32.1,438.0072326660156,0.06920000165700912,16,-0.0,1902.9177342976868,1.57542003E9,,,,0,,6,0.11,1.57542003E9
Raw,1755507822564,40240549000000,18,,-1439502798878505972,0.7768840789794922,32.69250737503171,-24.438581183889006,11.345226728540583,90,33,0.0,23567,119039346513061,35,26.8,271.10186767578125,0.7534999847412109,16,0.0,0.0,1.57542003E9,,,,0,,6,0.11,1.57542003E9
Fix,gps,-6.21452739,106.85978158,45.271484375,0.0,3.7900925,1755507822000
Raw,1755507823554,40241549000000,18,,-1439502798878505985,0.4850482940673828,34.58145511103794,-15.1630348638865,11.19730885256788,90,10,0.0,16399,119040358819264,21,30.1,-320.4168395996094,0.08760000765323639,16,-0.0,1902.9177342976868,1.57542003E9,,,,0,,1,0.12,1.57542003E9
Raw,1755507823554,40241549000000,18,,-1439502798878505985,0.4850482940673828,34.58145511103794,-15.1630348638865,11.19730885256788,90,18,0.0,16399,119040349138739,10,38.1,511.92291259765625,0.03590000048279762,16,-0.0,1902.9177342976868,1.57542003E9,,,,0,,1,0.12,1.57542003E9
Raw,1755507823554,40241549000000,18,,-1439502798878505985,0.4850482940673828,34.58145511103794,-15.1630348638865,11.19730885256788,90,23,0.0,16399,119040357691243,8,40.1,282.0165710449219,0.04670000448822975,16,-0.0,1902.9177342976868,1.57542003E9,,,,0,,1,0.12,1.57542003E9
Raw,1755507823557,40241549000000,18,,-1439502798878505985,0.4850482940673828,34.58145511103794,-15.1630348638865,11.19730885256788,90,26,0.0,16399,119040357915580,46,23.9,-387.8280334472656,0.9120000004768372,16,0.0,0.0,1.57542003E9,,,,0,,1,0.12,1.57542003E9
Raw,1755507823558,40241549000000,18,,-1439502798878505985,0.4850482940673828,34.58145511103794,-15.1630348638865,11.19730885256788,90,28,0.0,16399,119040351659129,40,25.2,381.3960876464844,0.8029999732971191,16,0.0,0.0,1.57542003E9,,,,0,,1,0.12,1.57542003E9
Raw,1755507823558,40241549000000,18,,-1439502798878505985,0.4850482940673828,34.58145511103794,-15.1630348638865,11.19730885256788,90,29,0.0,16399,119040345733246,16,33.4,74.838134765625,0.03840000182390213,16,-0.0,1902.9177342976868,1.57542003E9,,,,0,,1,0.12,1.57542003E9
Raw,1755507823558,40241549000000,18,,-1439502798878505985,0.4850482940673828,34.58145511103794,-15.1630348638865,11.19730885256788,90,194,0.0,16399,119040301073168,16,33.2,196.5929412841797,0.03240000084042549,16,-0.0,1902.9177342976868,1.57542003E9,,,,0,,4,0.12,1.57542003E9
Raw,1755507823558,40241549000000,18,,-1439502798878505985,0.4850482940673828,34.58145511103794,-15.1630348638865,11.19730885256788,90,195,0.0,16399,119040312776555,21,30.4,74.8310546875,0.07860000431537628,16,-0.0,1902.9177342976868,1.57542003E9,,,,0,,4,0.12,1.57542003E9
Raw,1755507823558,40241549000000,18,,-1439502798878505985,0.4850482940673828,34.58145511103794,-15.1630348638865,11.19730885256788,90,13,0.0,49359,43422363164495,12,36.3,11.833415031433105,0.22850000858306885,16,-0.0,1872.6600783192619,1.60087501E9,,,,0,,3,0.12,1.60087501E9
Raw,1755507823558,40241549000000,18,,-1439502798878505985,0.4850482940673828,34.58145511103794,-15.1630348638865,11.19730885256788,90,12,0.0,49359,43422358193476,24,29.9,630.4428100585938,0.31949999928474426,16,-0.0,1872.002391714177,1.60143744E9,,,,0,,3,0.12,1.60143744E9
Raw,1755507823559,40241549000000,18,,-1439502798878505985,0.4850482940673828,34.58145511103794,-15.1630348638865,11.19730885256788,90,1,0.0,49359,43422354608266,27,28.6,-419.5527648925781,0.8375000357627869,16,0.0,0.0,1.60256256E9,,,,0,,3,0.12,1.60256256E9
Raw,1755507823559,40241549000000,18,,-1439502798878505985,0.4850482940673828,34.58145511103794,-15.1630348638865,11.19730885256788,90,24,0.0,49359,43422353775249,40,25.9,207.76260375976562,1.00600004196167,16,0.0,0.0,1.60312499E9,,,,0,,3,0.12,1.60312499E9
Raw,1755507823559,40241549000000,18,,-1439502798878505985,0.4850482940673828,34.58145511103794,-15.1630348638865,11.19730885256788,90,8,0.0,49359,43422351044918,17,32.2,-12.12759017944336,0.24880000948905945,16,-0.0,1867.4108932046968,1.60537498E9,,,,0,,3,0.12,1.60537498E9
Raw,1755507823559,40241549000000,18,,-1439502798878505985,0.4850482940673828,34.58145511103794,-15.1630348638865,11.19730885256788,90,16,0.0,16399,119026299033546,46,24.8,249.4208984375,0.875,16,0.0,0.0,1.56109798E9,,,,0,,5,5.64,1.56109798E9
Raw,1755507823559,40241549000000,18,,-1439502798878505985,0.4850482940673828,34.58145511103794,-15.1630348638865,11.19730885256788,90,13,0.0,16399,119026305835420,53,23.6,-213.64393615722656,0.9239999651908875,16,0.0,0.0,1.56109798E9,,,,0,,5,5.64,1.56109798E9
Raw,1755507823559,40241549000000,18,,-1439502798878505985,0.4850482940673828,34.58145511103794,-15.1630348638865,11.19730885256788,90,9,0.0,16399,119026300956679,24,29.7,258.9996643066406,0.0925000011920929,16,-0.0,1920.3757538518662,1.56109798E9,,,,0,,5,5.64,1.56109798E9
Raw,1755507823559,40241549000000,18,,-1439502798878505985,0.4850482940673828,34.58145511103794,-15.1630348638865,11.19730885256788,90,7,0.0,16399,119026303317166,53,24.1,-102.41465759277344,0.8510000109672546,16,0.0,0.0,1.56109798E9,,,,0,,5,5.64,1.56109798E9
Raw,1755507823560,40241549000000,18,,-1439502798878505985,0.4850482940673828,34.58145511103794,-15.1630348638865,11.19730885256788,90,6,0.0,16399,119026301773136,61,22.7,242.3346405029297,0.9980000257492065,16,0.0,0.0,1.56109798E9,,,,0,,5,5.64,1.56109798E9
Raw,1755507823560,40241549000000,18,,-1439502798878505985,0.4850482940673828,34.58145511103794,-15.1630348638865,11.19730885256788,90,4,0.0,16399,119026299182860,13,36.0,-3.1974573135375977,1.2648999691009521,16,0.0,0.0,1.56109798E9,,,,0,,5,5.64,1.56109798E9
Raw,1755507823560,40241549000000,18,,-1439502798878505985,0.4850482940673828,34.58145511103794,-15.1630348638865,11.19730885256788,90,3,0.0,16399,119026308664872,19,32.0,-0.8065659403800964,1.8567999601364136,16,0.0,0.0,1.56109798E9,,,,0,,5,5.64,1.56109798E9
Raw,1755507823560,40241549000000,18,,-1439502798878505985,0.4850482940673828,34.58145511103794,-15.1630348638865,11.19730885256788,90,1,0.0,16399,119026302658516,9,40.1,-5.825520038604736,0.11949999630451202,16,-0.0,1920.3757538518662,1.56109798E9,,,,0,,5,5.64,1.56109798E9
Raw,1755507823561,40241549000000,18,,-1439502798878505985,0.4850482940673828,34.58145511103794,-15.1630348638865,11.19730885256788,90,10,0.0,23567,119040335920296,53,24.1,-261.6918640136719,0.8689999580383301,16,0.0,0.0,1.57542003E9,,,,0,,6,0.11,1.57542003E9
Raw,1755507823561,40241549000000,18,,-1439502798878505985,0.4850482940673828,34.58145511103794,-15.1630348638865,11.19730885256788,90,21,0.0,23567,119040342622340,27,28.9,298.7230224609375,0.643500030040741,16,0.0,0.0,1.57542003E9,,,,0,,6,0.11,1.57542003E9
Raw,1755507823561,40241549000000,18,,-1439502798878505985,0.4850482940673828,34.58145511103794,-15.1630348638865,11.19730885256788,90,23,0.0,23567,119040349302138,24,29.5,-150.3186492919922,0.11800000071525574,16,-0.0,1902.9177342976868,1.57542003E9,,,,0,,6,0.11,1.57542003E9
Raw,1755507823561,40241549000000,18,,-1439502798878505985,0.4850482940673828,34.58145511103794,-15.1630348638865,11.19730885256788,90,26,0.0,23567,119040338222911,19,31.4,439.796630859375,0.06920000165700912,16,-0.0,1902.9177342976868,1.57542003E9,,,,0,,6,0.11,1.57542003E9
Raw,1755507823562,40241549000000,18,,-1439502798878505985,0.4850482940673828,34.58145511103794,-15.1630348638865,11.19730885256788,90,33,0.0,23567,119040346512114,35,27.2,272.48150634765625,0.6934999823570251,16,0.0,0.0,1.57542003E9,,,,0,,6,0.11,1.57542003E9
Fix,gps,-6.21452706,106.85978165,45.1943359375,0.0,3.7900925,1755507823000
Raw,1755507824521,40242549000000,18,,-1439502798878505995,0.5310726165771484,31.880605092737824,-9.513087342376283,9.47127078904678,90,10,0.0,16399,119041358820334,21,30.3,-319.6789245605469,0.08760000765323639,16,-0.0,1902.9177342976868,1.57542003E9,,,,0,,1,0.12,1.57542003E9
Raw,1755507824522,40242549000000,18,,-1439502798878505995,0.5310726165771484,31.880605092737824,-9.513087342376283,9.47127078904678,90,18,0.0,16399,119041349137037,9,38.9,512.5189208984375,0.03530000150203705,16,-0.0,1902.9177342976868,1.57542003E9,,,,0,,1,0.12,1.57542003E9
Raw,1755507824522,40242549000000,18,,-1439502798878505995,0.5310726165771484,31.880605092737824,-9.513087342376283,9.47127078904678,90,23,0.0,16399,119041357690294,8,40.2,282.7386779785156,0.04670000448822975,16,-0.0,1902.9177342976868,1.57542003E9,,,,0,,1,0.12,1.57542003E9
Raw,1755507824526,40242549000000,18,,-1439502798878505995,0.5310726165771484,31.880605092737824,-9.513087342376283,9.47127078904678,90,26,0.0,16399,119041357916833,40,25.3,-387.9802551269531,0.8119999766349792,16,0.0,0.0,1.57542003E9,,,,0,,1,0.12,1.57542003E9
Raw,1755507824527,40242549000000,18,,-1439502798878505995,0.5310726165771484,31.880605092737824,-9.513087342376283,9.47127078904678,90,29,0.0,16399,119041345732983,21,29.9,75.50887298583984,0.06810000538825989,16,-0.0,1902.9177342976868,1.57542003E9,,,,0,,1,0.12,1.57542003E9
Raw,1755507824527,40242549000000,18,,-1439502798878505995,0.5310726165771484,31.880605092737824,-9.513087342376283,9.47127078904678,90,194,0.0,16399,119041301072498,14,34.3,197.1573486328125,0.027499999850988388,16,-0.0,1902.9177342976868,1.57542003E9,,,,0,,4,0.12,1.57542003E9
Raw,1755507824527,40242549000000,18,,-1439502798878505995,0.5310726165771484,31.880605092737824,-9.513087342376283,9.47127078904678,90,195,0.0,16399,119041312776233,27,28.1,75.6607666015625,0.6345000267028809,16,0.0,0.0,1.57542003E9,,,,0,,4,0.12,1.57542003E9
Raw,1755507824527,40242549000000,18,,-1439502798878505995,0.5310726165771484,31.880605092737824,-9.513087342376283,9.47127078904678,90,13,0.0,49359,43423363164447,13,35.4,12.577350616455078,0.22940000891685486,16,-0.0,1872.6600783192619,1.60087501E9,,,,0,,3,0.1,1.60087501E9
Raw,1755507824528,40242549000000,18,,-1439502798878505995,0.5310726165771484,31.880605092737824,-9.513087342376283,9.47127078904678,90,12,0.0,49359,43423358191335,24,29.9,631.0919799804688,0.31949999928474426,16,-0.0,1872.002391714177,1.60143744E9,,,,0,,3,0.1,1.60143744E9
Raw,1755507824529,40242549000000,18,,-1439502798878505995,0.5310726165771484,31.880605092737824,-9.513087342376283,9.47127078904678,90,1,0.0,49359,43423354609601,24,29.0,-419.37176513671875,0.31349998712539673,16,-0.0,1870.6881045945743,1.60256256E9,,,,0,,3,0.1,1.60256256E9
Raw,1755507824529,40242549000000,18,,-1439502798878505995,0.5310726165771484,31.880605092737824,-9.513087342376283,9.47127078904678,90,24,0.0,49359,43423353774368,40,25.5,208.62281799316406,1.00600004196167,16,0.0,0.0,1.60312499E9,,,,0,,3,0.1,1.60312499E9
Raw,1755507824530,40242549000000,18,,-1439502798878505995,0.5310726165771484,31.880605092737824,-9.513087342376283,9.47127078904678,90,8,0.0,49359,43423351044931,31,27.9,-11.67143440246582,0.8829999566078186,16,0.0,0.0,1.60537498E9,,,,0,,3,0.1,1.60537498E9
Raw,1755507824531,40242549000000,18,,-1439502798878505995,0.5310726165771484,31.880605092737824,-9.513087342376283,9.47127078904678,90,16,0.0,16399,119027299032772,46,24.9,250.16024780273438,0.875,16,0.0,0.0,1.56109798E9,,,,0,,5,5.64,1.56109798E9
Raw,1755507824531,40242549000000,18,,-1439502798878505995,0.5310726165771484,31.880605092737824,-9.513087342376283,9.47127078904678,90,13,0.0,16399,119027305836097,61,22.9,-212.2420654296875,1.0040000677108765,16,0.0,0.0,1.56109798E9,,,,0,,5,5.64,1.56109798E9
Raw,1755507824533,40242549000000,18,,-1439502798878505995,0.5310726165771484,31.880605092737824,-9.513087342376283,9.47127078904678,90,9,0.0,16399,119027300955813,27,28.5,259.90625,0.6165000200271606,16,0.0,0.0,1.56109798E9,,,,0,,5,5.64,1.56109798E9
Raw,1755507824533,40242549000000,18,,-1439502798878505995,0.5310726165771484,31.880605092737824,-9.513087342376283,9.47127078904678,90,7,0.0,16399,119027303317514,46,25.2,-101.36804962158203,0.7910000085830688,16,0.0,0.0,1.56109798E9,,,,0,,5,5.64,1.56109798E9
Raw,1755507824533,40242549000000,18,,-1439502798878505995,0.5310726165771484,31.880605092737824,-9.513087342376283,9.47127078904678,90,4,0.0,16399,119027299182875,10,38.5,-3.780799150466919,0.20020000636577606,16,-0.0,1920.3757538518662,1.56109798E9,,,,0,,5,5.64,1.56109798E9
Raw,1755507824534,40242549000000,18,,-1439502798878505995,0.5310726165771484,31.880605092737824,-9.513087342376283,9.47127078904678,90,1,0.0,16399,119027302658533,9,40.1,-5.222403049468994,0.11949999630451202,16,-0.0,1920.3757538518662,1.56109798E9,,,,0,,5,5.64,1.56109798E9
Raw,1755507824534,40242549000000,18,,-1439502798878505995,0.5310726165771484,31.880605092737824,-9.513087342376283,9.47127078904678,90,10,0.0,23567,119041335921138,31,27.3,-260.8926086425781,0.6889999508857727,16,0.0,0.0,1.57542003E9,,,,0,,6,0.11,1.57542003E9
Raw,1755507824534,40242549000000,18,,-1439502798878505995,0.5310726165771484,31.880605092737824,-9.513087342376283,9.47127078904678,90,21,0.0,23567,119041342621336,31,28.2,299.77911376953125,0.643500030040741,16,0.0,0.0,1.57542003E9,,,,0,,6,0.11,1.57542003E9
Raw,1755507824534,40242549000000,18,,-1439502798878505995,0.5310726165771484,31.880605092737824,-9.513087342376283,9.47127078904678,90,23,0.0,23567,119041349302675,40,25.4,-149.59938049316406,0.8119999766349792,16,0.0,0.0,1.57542003E9,,,,0,,6,0.11,1.57542003E9
Raw,1755507824537,40242549000000,18,,-1439502798878505995,0.5310726165771484,31.880605092737824,-9.513087342376283,9.47127078904678,90,26,0.0,23567,119041338221453,21,30.3,440.3852233886719,0.08760000765323639,16,-0.0,1902.9177342976868,1.57542003E9,,,,0,,6,0.11,1.57542003E9
Raw,1755507824537,40242549000000,18,,-1439502798878505995,0.5310726165771484,31.880605092737824,-9.513087342376283,9.47127078904678,90,33,0.0,23567,119041346511252,46,24.8,272.8525695800781,0.8734999895095825,16,0.0,0.0,1.57542003E9,,,,0,,6,0.11,1.57542003E9
Fix,gps,-6.21452664,106.85978249,45.21295166015625,0.0,3.7900925,1755507824000
Raw,1755507825561,40243549000000,18,,-1439502798878506000,0.5242824554443359,35.374094295548275,-7.3588727763258115,11.487123548898943,90,10,0.0,16399,119042358821367,31,27.4,-318.684814453125,0.6934999823570251,16,0.0,0.0,1.57542003E9,,,,0,,1,0.12,1.57542003E9
Raw,1755507825561,40243549000000,18,,-1439502798878506000,0.5242824554443359,35.374094295548275,-7.3588727763258115,11.487123548898943,90,18,0.0,16399,119042349135327,12,36.5,512.967529296875,0.03750000149011612,16,-0.0,1902.9177342976868,1.57542003E9,,,,0,,1,0.12,1.57542003E9
Raw,1755507825561,40243549000000,18,,-1439502798878506000,0.5242824554443359,35.374094295548275,-7.3588727763258115,11.487123548898943,90,23,0.0,16399,119042357689359,7,40.7,283.34014892578125,0.04620000347495079,16,-0.0,1902.9177342976868,1.57542003E9,,,,0,,1,0.12,1.57542003E9
Raw,1755507825562,40243549000000,18,,-1439502798878506000,0.5242824554443359,35.374094295548275,-7.3588727763258115,11.487123548898943,90,29,0.0,16399,119042345732707,24,28.8,76.02967071533203,0.09999999403953552,16,-0.0,1902.9177342976868,1.57542003E9,,,,0,,1,0.12,1.57542003E9
Raw,1755507825564,40243549000000,18,,-1439502798878506000,0.5242824554443359,35.374094295548275,-7.3588727763258115,11.487123548898943,90,194,0.0,16399,119042301071849,21,30.3,197.6551055908203,0.06210000067949295,16,-0.0,1902.9177342976868,1.57542003E9,,,,0,,4,0.12,1.57542003E9
Raw,1755507825564,40243549000000,18,,-1439502798878506000,0.5242824554443359,35.374094295548275,-7.3588727763258115,11.487123548898943,90,195,0.0,16399,119042312776034,17,31.9,75.99263763427734,0.050300002098083496,16,-0.0,1902.9177342976868,1.57542003E9,,,,0,,4,0.12,1.57542003E9
Raw,1755507825565,40243549000000,18,,-1439502798878506000,0.5242824554443359,35.374094295548275,-7.3588727763258115,11.487123548898943,90,13,0.0,49359,43424363164407,11,37.0,13.221742630004883,0.22770000994205475,16,-0.0,1872.6600783192619,1.60087501E9,,,,0,,3,0.1,1.60087501E9
Raw,1755507825565,40243549000000,18,,-1439502798878506000,0.5242824554443359,35.374094295548275,-7.3588727763258115,11.487123548898943,90,12,0.0,49359,43424358189278,31,27.9,631.8070678710938,0.8934999704360962,16,0.0,0.0,1.60143744E9,,,,0,,3,0.1,1.60143744E9
Raw,1755507825565,40243549000000,18,,-1439502798878506000,0.5242824554443359,35.374094295548275,-7.3588727763258115,11.487123548898943,90,1,0.0,49359,43424354611027,31,27.2,-418.8418884277344,0.887499988079071,16,0.0,0.0,1.60256256E9,,,,0,,3,0.1,1.60256256E9
Raw,1755507825566,40243549000000,18,,-1439502798878506000,0.5242824554443359,35.374094295548275,-7.3588727763258115,11.487123548898943,90,24,0.0,49359,43424353773842,40,25.7,208.81918334960938,1.00600004196167,16,0.0,0.0,1.60312499E9,,,,0,,3,0.1,1.60312499E9
Raw,1755507825566,40243549000000,18,,-1439502798878506000,0.5242824554443359,35.374094295548275,-7.3588727763258115,11.487123548898943,90,8,0.0,49359,43424351044978,13,35.6,-10.779105186462402,0.24140000343322754,16,-0.0,1867.4108932046968,1.60537498E9,,,,0,,3,0.1,1.60537498E9
Raw,1755507825566,40243549000000,18,,-1439502798878506000,0.5242824554443359,35.374094295548275,-7.3588727763258115,11.487123548898943,90,13,0.0,16399,119028305836820,31,27.5,-212.40528869628906,0.6739999651908875,16,0.0,0.0,1.56109798E9,,,,0,,5,5.64,1.56109798E9
Raw,1755507825566,40243549000000,18,,-1439502798878506000,0.5242824554443359,35.374094295548275,-7.3588727763258115,11.487123548898943,90,9,0.0,16399,119028300954946,24,29.7,260.0379638671875,0.0925000011920929,16,-0.0,1920.3757538518662,1.56109798E9,,,,0,,5,5.64,1.56109798E9
Raw,1755507825567,40243549000000,18,,-1439502798878506000,0.5242824554443359,35.374094295548275,-7.3588727763258115,11.487123548898943,90,7,0.0,16399,119028303317849,31,27.6,-101.37765502929688,0.6710000038146973,16,0.0,0.0,1.56109798E9,,,,0,,5,5.64,1.56109798E9
Raw,1755507825567,40243549000000,18,,-1439502798878506000,0.5242824554443359,35.374094295548275,-7.3588727763258115,11.487123548898943,90,6,0.0,16399,119028301771497,80,21.1,243.53488159179688,1.8279999494552612,16,0.0,0.0,1.56109798E9,,,,0,,5,5.64,1.56109798E9
Raw,1755507825567,40243549000000,18,,-1439502798878506000,0.5242824554443359,35.374094295548275,-7.3588727763258115,11.487123548898943,90,4,0.0,16399,119028299182887,13,35.8,-1.4306942224502563,1.3906999826431274,16,0.0,0.0,1.56109798E9,,,,0,,5,5.64,1.56109798E9
Raw,1755507825567,40243549000000,18,,-1439502798878506000,0.5242824554443359,35.374094295548275,-7.3588727763258115,11.487123548898943,90,3,0.0,16399,119028308664900,19,32.1,-0.9601974487304688,2.606800079345703,16,0.0,0.0,1.56109798E9,,,,0,,5,5.64,1.56109798E9
Raw,1755507825567,40243549000000,18,,-1439502798878506000,0.5242824554443359,35.374094295548275,-7.3588727763258115,11.487123548898943,90,2,0.0,16399,119028305464634,27,28.5,-3.735168218612671,4.457099914550781,16,0.0,0.0,1.56109798E9,,,,0,,5,5.64,1.56109798E9
Raw,1755507825567,40243549000000,18,,-1439502798878506000,0.5242824554443359,35.374094295548275,-7.3588727763258115,11.487123548898943,90,1,0.0,16399,119028302658554,9,39.7,-4.7677412033081055,0.11949999630451202,16,-0.0,1920.3757538518662,1.56109798E9,,,,0,,5,5.64,1.56109798E9
Raw,1755507825567,40243549000000,18,,-1439502798878506000,0.5242824554443359,35.374094295548275,-7.3588727763258115,11.487123548898943,90,10,0.0,23567,119042335921994,53,24.1,-260.87359619140625,0.8689999580383301,16,0.0,0.0,1.57542003E9,,,,0,,6,0.13,1.57542003E9
Raw,1755507825567,40243549000000,18,,-1439502798878506000,0.5242824554443359,35.374094295548275,-7.3588727763258115,11.487123548898943,90,21,0.0,23567,119042342620366,31,27.7,299.9313659667969,0.6934999823570251,16,0.0,0.0,1.57542003E9,,,,0,,6,0.13,1.57542003E9
Raw,1755507825568,40243549000000,18,,-1439502798878506000,0.5242824554443359,35.374094295548275,-7.3588727763258115,11.487123548898943,90,23,0.0,23567,119042349303125,21,31.0,-149.1134796142578,0.0861000046133995,16,-0.0,1902.9177342976868,1.57542003E9,,,,0,,6,0.13,1.57542003E9
Raw,1755507825568,40243549000000,18,,-1439502798878506000,0.5242824554443359,35.374094295548275,-7.3588727763258115,11.487123548898943,90,26,0.0,23567,119042338219947,17,32.6,440.9439697265625,0.059300001710653305,16,-0.0,1902.9177342976868,1.57542003E9,,,,0,,6,0.13,1.57542003E9
Raw,1755507825568,40243549000000,18,,-1439502798878506000,0.5242824554443359,35.374094295548275,-7.3588727763258115,11.487123548898943,90,33,0.0,23567,119042346510297,35,27.2,273.3568420410156,0.6934999823570251,16,0.0,0.0,1.57542003E9,,,,0,,6,0.13,1.57542003E9
Fix,gps,-6.21452616,106.85978307,45.25372314453125,0.0,3.7900925,1755507825000
Raw,1755507826545,40244549000000,18,,-1439502798878506005,0.30887603759765625,34.97451689327136,-5.610645639670948,11.522441879348404,90,10,0.0,16399,119043358822466,24,29.3,-318.5722351074219,0.11949999630451202,16,-0.0,1902.9177342976868,1.57542003E9,,,,0,,1,0.15,1.57542003E9
Raw,1755507826545,40244549000000,18,,-1439502798878506005,0.30887603759765625,34.97451689327136,-5.610645639670948,11.522441879348404,90,18,0.0,16399,119043349133625,11,37.3,513.3553466796875,0.03670000284910202,16,-0.0,1902.9177342976868,1.57542003E9,,,,0,,1,0.15,1.57542003E9
Raw,1755507826545,40244549000000,18,,-1439502798878506005,0.30887603759765625,34.97451689327136,-5.610645639670948,11.522441879348404,90,23,0.0,16399,119043357688400,7,40.9,283.8533020019531,0.04620000347495079,16,-0.0,1902.9177342976868,1.57542003E9,,,,0,,1,0.15,1.57542003E9
Raw,1755507826546,40244549000000,18,,-1439502798878506005,0.30887603759765625,34.97451689327136,-5.610645639670948,11.522441879348404,90,25,0.0,16399,119043350095456,53,23.3,591.0426025390625,0.9014999866485596,16,0.0,0.0,1.57542003E9,,,,0,,1,0.15,1.57542003E9
Raw,1755507826547,40244549000000,18,,-1439502798878506005,0.30887603759765625,34.97451689327136,-5.610645639670948,11.522441879348404,90,29,0.0,16399,119043345732439,27,28.2,76.45999908447266,0.6240000128746033,16,0.0,0.0,1.57542003E9,,,,0,,1,0.15,1.57542003E9
Raw,1755507826547,40244549000000,18,,-1439502798878506005,0.30887603759765625,34.97451689327136,-5.610645639670948,11.522441879348404,90,194,0.0,16399,119043301071248,40,25.3,197.71511840820312,0.7879999876022339,16,0.0,0.0,1.57542003E9,,,,0,,4,0.15,1.57542003E9
Raw,1755507826547,40244549000000,18,,-1439502798878506005,0.30887603759765625,34.97451689327136,-5.610645639670948,11.522441879348404,90,195,0.0,16399,119043312775738,19,30.6,76.42439270019531,0.060200002044439316,16,-0.0,1902.9177342976868,1.57542003E9,,,,0,,4,0.15,1.57542003E9
Raw,1755507826547,40244549000000,18,,-1439502798878506005,0.30887603759765625,34.97451689327136,-5.610645639670948,11.522441879348404,90,13,0.0,49359,43425363164352,12,36.7,13.792740821838379,0.22850000858306885,16,-0.0,1872.6600783192619,1.60087501E9,,,,0,,3,0.09,1.60087501E9
Raw,1755507826547,40244549000000,18,,-1439502798878506005,0.30887603759765625,34.97451689327136,-5.610645639670948,11.522441879348404,90,12,0.0,49359,43425358187030,27,28.3,632.2470092773438,0.843500018119812,16,0.0,0.0,1.60143744E9,,,,0,,3,0.09,1.60143744E9
Raw,1755507826547,40244549000000,18,,-1439502798878506005,0.30887603759765625,34.97451689327136,-5.610645639670948,11.522441879348404,90,1,0.0,49359,43425354612310,35,26.3,-418.62677001953125,0.9474999904632568,16,0.0,0.0,1.60256256E9,,,,0,,3,0.09,1.60256256E9
Raw,1755507826548,40244549000000,18,,-1439502798878506005,0.30887603759765625,34.97451689327136,-5.610645639670948,11.522441879348404,90,24,0.0,49359,43425353773161,35,26.2,209.17449951171875,0.9459999799728394,16,0.0,0.0,1.60312499E9,,,,0,,3,0.09,1.60312499E9
Raw,1755507826548,40244549000000,18,,-1439502798878506005,0.30887603759765625,34.97451689327136,-5.610645639670948,11.522441879348404,90,8,0.0,49359,43425351045029,12,36.7,-10.309700012207031,0.24050000309944153,16,-0.0,1867.4108932046968,1.60537498E9,,,,0,,3,0.09,1.60537498E9
Raw,1755507826548,40244549000000,18,,-1439502798878506005,0.30887603759765625,34.97451689327136,-5.610645639670948,11.522441879348404,90,16,0.0,16399,119029299031043,53,23.5,250.64035034179688,1.6950000524520874,16,0.0,0.0,1.56109798E9,,,,0,,5,5.64,1.56109798E9
Raw,1755507826548,40244549000000,18,,-1439502798878506005,0.30887603759765625,34.97451689327136,-5.610645639670948,11.522441879348404,90,13,0.0,16399,119029305837526,35,26.9,-211.90599060058594,0.7339999675750732,16,0.0,0.0,1.56109798E9,,,,0,,5,5.64,1.56109798E9
Raw,1755507826548,40244549000000,18,,-1439502798878506005,0.30887603759765625,34.97451689327136,-5.610645639670948,11.522441879348404,90,9,0.0,16399,119029300954079,24,30.1,260.4519958496094,0.0925000011920929,16,-0.0,1920.3757538518662,1.56109798E9,,,,0,,5,5.64,1.56109798E9
Raw,1755507826548,40244549000000,18,,-1439502798878506005,0.30887603759765625,34.97451689327136,-5.610645639670948,11.522441879348404,90,7,0.0,16399,119029303318165,31,27.7,-101.33924102783203,0.6710000038146973,16,0.0,0.0,1.56109798E9,,,,0,,5,5.64,1.56109798E9
Raw,1755507826548,40244549000000,18,,-1439502798878506005,0.30887603759765625,34.97451689327136,-5.610645639670948,11.522441879348404,90,6,0.0,16399,119029301770726,53,23.3,242.92996215820312,0.9179999828338623,16,0.0,0.0,1.56109798E9,,,,0,,5,5.64,1.56109798E9
Raw,1755507826548,40244549000000,18,,-1439502798878506005,0.30887603759765625,34.97451689327136,-5.610645639670948,11.522441879348404,90,4,0.0,16399,119029299182907,14,34.7,-2.995816230773926,1.5166000127792358,16,0.0,0.0,1.56109798E9,,,,0,,5,5.64,1.56109798E9
Raw,1755507826548,40244549000000,18,,-1439502798878506005,0.30887603759765625,34.97451689327136,-5.610645639670948,11.522441879348404,90,3,0.0,16399,119029308664899,16,33.5,1.6227335929870605,1.6858999729156494,16,0.0,0.0,1.56109798E9,,,,0,,5,5.64,1.56109798E9
Raw,1755507826548,40244549000000,18,,-1439502798878506005,0.30887603759765625,34.97451689327136,-5.610645639670948,11.522441879348404,90,1,0.0,16399,119029302658567,8,40.5,-4.34630012512207,0.08760000765323639,16,-0.0,1920.3757538518662,1.56109798E9,,,,0,,5,5.64,1.56109798E9
Raw,1755507826548,40244549000000,18,,-1439502798878506005,0.30887603759765625,34.97451689327136,-5.610645639670948,11.522441879348404,90,10,0.0,23567,119043335922857,46,24.9,-260.19805908203125,0.8689999580383301,16,0.0,0.0,1.57542003E9,,,,0,,6,0.11,1.57542003E9
Raw,1755507826548,40244549000000,18,,-1439502798878506005,0.30887603759765625,34.97451689327136,-5.610645639670948,11.522441879348404,90,21,0.0,23567,119043342619335,31,27.8,301.0541076660156,0.6934999823570251,16,0.0,0.0,1.57542003E9,,,,0,,6,0.11,1.57542003E9
Raw,1755507826548,40244549000000,18,,-1439502798878506005,0.30887603759765625,34.97451689327136,-5.610645639670948,11.522441879348404,90,23,0.0,23567,119043349303623,31,27.9,-149.06655883789062,0.6919999718666077,16,0.0,0.0,1.57542003E9,,,,0,,6,0.11,1.57542003E9
